[
    {
        "PROVINCIA": "48",
        "DESCRIPCION_PROVINCIA": "BIZKAIA",
        "MUNICIPIO": "020",
        "DESCRIPCION_MUNICIPIO": "BILBAO",
        "PARADA": "1101",
        "DENOMINACION": "LEHENDAKARI AGUIRRE 149",
        "DIRECCION": "",
        "LATITUD": "43.277751895262966",
        "LONGITUD": "-2.960797586575727"
    },
    {
        "PROVINCIA": "48",
        "DESCRIPCION_PROVINCIA": "BIZKAIA",
        "MUNICIPIO": "020",
        "DESCRIPCION_MUNICIPIO": "BILBAO",
        "PARADA": "1102",
        "DENOMINACION": "LEHENDAKARI AGUIRRE 154",
        "DIRECCION": "",
        "LATITUD": "43.27884002318917",
        "LONGITUD": "-2.961292688554509"
    },
    {
        "PROVINCIA": "48",
        "DESCRIPCION_PROVINCIA": "BIZKAIA",
        "MUNICIPIO": "020",
        "DESCRIPCION_MUNICIPIO": "BILBAO",
        "PARADA": "1103",
        "DENOMINACION": "LEHENDAKARI AGUIRRE 161",
        "DIRECCION": "",
        "LATITUD": "43.27943945920441",
        "LONGITUD": "-2.961752770375152"
    },
    {
        "PROVINCIA": "48",
        "DESCRIPCION_PROVINCIA": "BIZKAIA",
        "MUNICIPIO": "020",
        "DESCRIPCION_MUNICIPIO": "BILBAO",
        "PARADA": "1104",
        "DENOMINACION": "PLAZA LEVANTE",
        "DIRECCION": "",
        "LATITUD": "43.281711991040666",
        "LONGITUD": "-2.9628574169127613"
    },
    {
        "PROVINCIA": "48",
        "DESCRIPCION_PROVINCIA": "BIZKAIA",
        "MUNICIPIO": "020",
        "DESCRIPCION_MUNICIPIO": "BILBAO",
        "PARADA": "1105",
        "DENOMINACION": "LEHENDAKARI AGUIRRE 179",
        "DIRECCION": "",
        "LATITUD": "43.28175652633522",
        "LONGITUD": "-2.963031855931052"
    },
    {
        "PROVINCIA": "48",
        "DESCRIPCION_PROVINCIA": "BIZKAIA",
        "MUNICIPIO": "020",
        "DESCRIPCION_MUNICIPIO": "BILBAO",
        "PARADA": "1106",
        "DENOMINACION": "ORIXE 54",
        "DIRECCION": "",
        "LATITUD": "43.28374683352868",
        "LONGITUD": "-2.962508088093852"
    },
    {
        "PROVINCIA": "48",
        "DESCRIPCION_PROVINCIA": "BIZKAIA",
        "MUNICIPIO": "020",
        "DESCRIPCION_MUNICIPIO": "BILBAO",
        "PARADA": "1201",
        "DENOMINACION": "IGNACIO  ELLACURÍA / ELORRIETA ",
        "DIRECCION": "",
        "LATITUD": "43.28411077008396",
        "LONGITUD": "-2.965481626063659"
    },
    {
        "PROVINCIA": "48",
        "DESCRIPCION_PROVINCIA": "BIZKAIA",
        "MUNICIPIO": "020",
        "DESCRIPCION_MUNICIPIO": "BILBAO",
        "PARADA": "1301",
        "DENOMINACION": "SARRIKO",
        "DIRECCION": "",
        "LATITUD": "43.27465834854547",
        "LONGITUD": "-2.958535847344083"
    },
    {
        "PROVINCIA": "48",
        "DESCRIPCION_PROVINCIA": "BIZKAIA",
        "MUNICIPIO": "020",
        "DESCRIPCION_MUNICIPIO": "BILBAO",
        "PARADA": "1302",
        "DENOMINACION": "DON BOSCO / UGARTEKO",
        "DIRECCION": "",
        "LATITUD": "43.273344602565",
        "LONGITUD": "-2.955510554817253"
    },
    {
        "PROVINCIA": "48",
        "DESCRIPCION_PROVINCIA": "BIZKAIA",
        "MUNICIPIO": "020",
        "DESCRIPCION_MUNICIPIO": "BILBAO",
        "PARADA": "1303",
        "DENOMINACION": "LEHENDAKARI AGUIRRE 135",
        "DIRECCION": "",
        "LATITUD": "43.2759007872576",
        "LONGITUD": "-2.959784579812677"
    },
    {
        "PROVINCIA": "48",
        "DESCRIPCION_PROVINCIA": "BIZKAIA",
        "MUNICIPIO": "020",
        "DESCRIPCION_MUNICIPIO": "BILBAO",
        "PARADA": "1304",
        "DENOMINACION": "LEHENDAKARI AGUIRRE 140",
        "DIRECCION": "",
        "LATITUD": "43.27681489662065",
        "LONGITUD": "-2.9601014574088227"
    },
    {
        "PROVINCIA": "48",
        "DESCRIPCION_PROVINCIA": "BIZKAIA",
        "MUNICIPIO": "020",
        "DESCRIPCION_MUNICIPIO": "BILBAO",
        "PARADA": "1305",
        "DENOMINACION": "LEHENDAKARI AGUIRRE 81",
        "DIRECCION": "",
        "LATITUD": "43.27381013964468",
        "LONGITUD": "-2.957621406880393"
    },
    {
        "PROVINCIA": "48",
        "DESCRIPCION_PROVINCIA": "BIZKAIA",
        "MUNICIPIO": "020",
        "DESCRIPCION_MUNICIPIO": "BILBAO",
        "PARADA": "1306",
        "DENOMINACION": "UGARTEKO / IBARREKOLANDA",
        "DIRECCION": "",
        "LATITUD": "43.273844383766814",
        "LONGITUD": "-2.955456014999015"
    },
    {
        "PROVINCIA": "48",
        "DESCRIPCION_PROVINCIA": "BIZKAIA",
        "MUNICIPIO": "020",
        "DESCRIPCION_MUNICIPIO": "BILBAO",
        "PARADA": "1401",
        "DENOMINACION": "ARANEKO fte.22",
        "DIRECCION": "",
        "LATITUD": "43.27416184731639",
        "LONGITUD": "-2.949792746740952"
    },
    {
        "PROVINCIA": "48",
        "DESCRIPCION_PROVINCIA": "BIZKAIA",
        "MUNICIPIO": "020",
        "DESCRIPCION_MUNICIPIO": "BILBAO",
        "PARADA": "1402",
        "DENOMINACION": "BLAS DE OTERO fte. 23",
        "DIRECCION": "",
        "LATITUD": "43.27007369817762",
        "LONGITUD": "-2.9470847495562422"
    },
    {
        "PROVINCIA": "48",
        "DESCRIPCION_PROVINCIA": "BIZKAIA",
        "MUNICIPIO": "020",
        "DESCRIPCION_MUNICIPIO": "BILBAO",
        "PARADA": "1403",
        "DENOMINACION": "BLAS DE OTERO fte. 57",
        "DIRECCION": "",
        "LATITUD": "43.26983484502514",
        "LONGITUD": "-2.9518522257781914"
    },
    {
        "PROVINCIA": "48",
        "DESCRIPCION_PROVINCIA": "BIZKAIA",
        "MUNICIPIO": "020",
        "DESCRIPCION_MUNICIPIO": "BILBAO",
        "PARADA": "1404",
        "DENOMINACION": "BOTICA VIEJA",
        "DIRECCION": "",
        "LATITUD": "43.26918370708498",
        "LONGITUD": "-2.9436339288663262"
    },
    {
        "PROVINCIA": "48",
        "DESCRIPCION_PROVINCIA": "BIZKAIA",
        "MUNICIPIO": "020",
        "DESCRIPCION_MUNICIPIO": "BILBAO",
        "PARADA": "1405",
        "DENOMINACION": "BOTICA VIEJA / PUENTE DE DEUSTU",
        "DIRECCION": "",
        "LATITUD": "43.269952399638896",
        "LONGITUD": "-2.940344243189883"
    },
    {
        "PROVINCIA": "48",
        "DESCRIPCION_PROVINCIA": "BIZKAIA",
        "MUNICIPIO": "020",
        "DESCRIPCION_MUNICIPIO": "BILBAO",
        "PARADA": "1407",
        "DENOMINACION": "HELIODORO DE LA TORRE",
        "DIRECCION": "",
        "LATITUD": "43.26928381523624",
        "LONGITUD": "-2.9437626382023625"
    },
    {
        "PROVINCIA": "48",
        "DESCRIPCION_PROVINCIA": "BIZKAIA",
        "MUNICIPIO": "020",
        "DESCRIPCION_MUNICIPIO": "BILBAO",
        "PARADA": "1408",
        "DENOMINACION": "BOTICA VIEJA 1",
        "DIRECCION": "",
        "LATITUD": "43.269994195434336",
        "LONGITUD": "-2.940385365483736"
    },
    {
        "PROVINCIA": "48",
        "DESCRIPCION_PROVINCIA": "BIZKAIA",
        "MUNICIPIO": "020",
        "DESCRIPCION_MUNICIPIO": "BILBAO",
        "PARADA": "1409",
        "DENOMINACION": "BUENAVISTA",
        "DIRECCION": "",
        "LATITUD": "43.274006049614",
        "LONGITUD": "-2.943354452127025"
    },
    {
        "PROVINCIA": "48",
        "DESCRIPCION_PROVINCIA": "BIZKAIA",
        "MUNICIPIO": "020",
        "DESCRIPCION_MUNICIPIO": "BILBAO",
        "PARADA": "1410",
        "DENOMINACION": "HERMANOS AGUIRRE ",
        "DIRECCION": "",
        "LATITUD": "43.27098685287395",
        "LONGITUD": "-2.94091052562913"
    },
    {
        "PROVINCIA": "48",
        "DESCRIPCION_PROVINCIA": "BIZKAIA",
        "MUNICIPIO": "020",
        "DESCRIPCION_MUNICIPIO": "BILBAO",
        "PARADA": "1411",
        "DENOMINACION": "IBARREKOLANDA 19",
        "DIRECCION": "",
        "LATITUD": "43.2736868157758",
        "LONGITUD": "-2.95446884700913"
    },
    {
        "PROVINCIA": "48",
        "DESCRIPCION_PROVINCIA": "BIZKAIA",
        "MUNICIPIO": "020",
        "DESCRIPCION_MUNICIPIO": "BILBAO",
        "PARADA": "1412",
        "DENOMINACION": "DON BOSCO ",
        "DIRECCION": "",
        "LATITUD": "43.2727343694166",
        "LONGITUD": "-2.9554928756509886"
    },
    {
        "PROVINCIA": "48",
        "DESCRIPCION_PROVINCIA": "BIZKAIA",
        "MUNICIPIO": "020",
        "DESCRIPCION_MUNICIPIO": "BILBAO",
        "PARADA": "1413",
        "DENOMINACION": "ESCUELA DE IDIOMAS",
        "DIRECCION": "",
        "LATITUD": "43.27168185790902",
        "LONGITUD": "-2.944170339638878"
    },
    {
        "PROVINCIA": "48",
        "DESCRIPCION_PROVINCIA": "BIZKAIA",
        "MUNICIPIO": "020",
        "DESCRIPCION_MUNICIPIO": "BILBAO",
        "PARADA": "1414",
        "DENOMINACION": "LEHENDAKARI AGUIRRE / fte. BIDARTE",
        "DIRECCION": "",
        "LATITUD": "43.271995267098966",
        "LONGITUD": "-2.9499921918937355"
    },
    {
        "PROVINCIA": "48",
        "DESCRIPCION_PROVINCIA": "BIZKAIA",
        "MUNICIPIO": "020",
        "DESCRIPCION_MUNICIPIO": "BILBAO",
        "PARADA": "1415",
        "DENOMINACION": "LEHENDAKARI AGUIRRE 42",
        "DIRECCION": "",
        "LATITUD": "43.27213423270929",
        "LONGITUD": "-2.951035203337492"
    },
    {
        "PROVINCIA": "48",
        "DESCRIPCION_PROVINCIA": "BIZKAIA",
        "MUNICIPIO": "020",
        "DESCRIPCION_MUNICIPIO": "BILBAO",
        "PARADA": "1416",
        "DENOMINACION": "LUIS POWER fte. 18",
        "DIRECCION": "",
        "LATITUD": "43.27063080719941",
        "LONGITUD": "-2.9474354968215715"
    },
    {
        "PROVINCIA": "48",
        "DESCRIPCION_PROVINCIA": "BIZKAIA",
        "MUNICIPIO": "020",
        "DESCRIPCION_MUNICIPIO": "BILBAO",
        "PARADA": "1417",
        "DENOMINACION": "LUIS POWER fte. 4 ",
        "DIRECCION": "",
        "LATITUD": "43.268717234609255",
        "LONGITUD": "-2.947274574367642"
    },
    {
        "PROVINCIA": "48",
        "DESCRIPCION_PROVINCIA": "BIZKAIA",
        "MUNICIPIO": "020",
        "DESCRIPCION_MUNICIPIO": "BILBAO",
        "PARADA": "1418",
        "DENOMINACION": "MADARIAGA ",
        "DIRECCION": "",
        "LATITUD": "43.27073267298911",
        "LONGITUD": "-2.956878894410847"
    },
    {
        "PROVINCIA": "48",
        "DESCRIPCION_PROVINCIA": "BIZKAIA",
        "MUNICIPIO": "020",
        "DESCRIPCION_MUNICIPIO": "BILBAO",
        "PARADA": "1419",
        "DENOMINACION": "MADARIAGA / fte. LA SALLE",
        "DIRECCION": "",
        "LATITUD": "43.27079389042892",
        "LONGITUD": "-2.9545199341251887"
    },
    {
        "PROVINCIA": "48",
        "DESCRIPCION_PROVINCIA": "BIZKAIA",
        "MUNICIPIO": "020",
        "DESCRIPCION_MUNICIPIO": "BILBAO",
        "PARADA": "1420",
        "DENOMINACION": "BASABE",
        "DIRECCION": "",
        "LATITUD": "43.27066398374419",
        "LONGITUD": "-2.956629906397641"
    },
    {
        "PROVINCIA": "48",
        "DESCRIPCION_PROVINCIA": "BIZKAIA",
        "MUNICIPIO": "020",
        "DESCRIPCION_MUNICIPIO": "BILBAO",
        "PARADA": "1421",
        "DENOMINACION": "LA SALLE",
        "DIRECCION": "",
        "LATITUD": "43.27072574662687",
        "LONGITUD": "-2.9549515469220684"
    },
    {
        "PROVINCIA": "48",
        "DESCRIPCION_PROVINCIA": "BIZKAIA",
        "MUNICIPIO": "020",
        "DESCRIPCION_MUNICIPIO": "BILBAO",
        "PARADA": "1423",
        "DENOMINACION": "SAN PEDRO / IGLESIA",
        "DIRECCION": "",
        "LATITUD": "43.2719038906536",
        "LONGITUD": "-2.9449654154205644"
    },
    {
        "PROVINCIA": "48",
        "DESCRIPCION_PROVINCIA": "BIZKAIA",
        "MUNICIPIO": "020",
        "DESCRIPCION_MUNICIPIO": "BILBAO",
        "PARADA": "1424",
        "DENOMINACION": "SAN PIO X / FRANCESC MACIÀ",
        "DIRECCION": "",
        "LATITUD": "43.27097190925789",
        "LONGITUD": "-2.9415795972814784"
    },
    {
        "PROVINCIA": "48",
        "DESCRIPCION_PROVINCIA": "BIZKAIA",
        "MUNICIPIO": "020",
        "DESCRIPCION_MUNICIPIO": "BILBAO",
        "PARADA": "1425",
        "DENOMINACION": "SAN PIO X / HERMANOS AGUIRRE",
        "DIRECCION": "",
        "LATITUD": "43.271042943703016",
        "LONGITUD": "-2.941310103523179"
    },
    {
        "PROVINCIA": "48",
        "DESCRIPCION_PROVINCIA": "BIZKAIA",
        "MUNICIPIO": "020",
        "DESCRIPCION_MUNICIPIO": "BILBAO",
        "PARADA": "1428",
        "DENOMINACION": "SAGRADA FAMILIA / fte. SALESIANOS ",
        "DIRECCION": "",
        "LATITUD": "43.27131385318666",
        "LONGITUD": "-2.952669999710986"
    },
    {
        "PROVINCIA": "48",
        "DESCRIPCION_PROVINCIA": "BIZKAIA",
        "MUNICIPIO": "020",
        "DESCRIPCION_MUNICIPIO": "BILBAO",
        "PARADA": "1430",
        "DENOMINACION": "IBARREKOLANDA 17",
        "DIRECCION": "",
        "LATITUD": "43.273541399159",
        "LONGITUD": "-2.954085165563599"
    },
    {
        "PROVINCIA": "48",
        "DESCRIPCION_PROVINCIA": "BIZKAIA",
        "MUNICIPIO": "020",
        "DESCRIPCION_MUNICIPIO": "BILBAO",
        "PARADA": "1431",
        "DENOMINACION": "IBARREKOLANDA / PARKING",
        "DIRECCION": "",
        "LATITUD": "43.27344649317921",
        "LONGITUD": "-2.953504218587222"
    },
    {
        "PROVINCIA": "48",
        "DESCRIPCION_PROVINCIA": "BIZKAIA",
        "MUNICIPIO": "020",
        "DESCRIPCION_MUNICIPIO": "BILBAO",
        "PARADA": "1432",
        "DENOMINACION": "MADARIAGA 13",
        "DIRECCION": "",
        "LATITUD": "43.27103162644831",
        "LONGITUD": "-2.946211086408779"
    },
    {
        "PROVINCIA": "48",
        "DESCRIPCION_PROVINCIA": "BIZKAIA",
        "MUNICIPIO": "020",
        "DESCRIPCION_MUNICIPIO": "BILBAO",
        "PARADA": "1434",
        "DENOMINACION": "PUENTE PEDRO ARRUPE",
        "DIRECCION": "",
        "LATITUD": "43.27020400337152",
        "LONGITUD": "-2.93727256916398"
    },
    {
        "PROVINCIA": "48",
        "DESCRIPCION_PROVINCIA": "BIZKAIA",
        "MUNICIPIO": "020",
        "DESCRIPCION_MUNICIPIO": "BILBAO",
        "PARADA": "1435",
        "DENOMINACION": "UNIVERSIDAD DEUSTO",
        "DIRECCION": "",
        "LATITUD": "43.27025688359584",
        "LONGITUD": "-2.937653365313592"
    },
    {
        "PROVINCIA": "48",
        "DESCRIPCION_PROVINCIA": "BIZKAIA",
        "MUNICIPIO": "020",
        "DESCRIPCION_MUNICIPIO": "BILBAO",
        "PARADA": "1504",
        "DENOMINACION": "RIBERA DE DEUSTU fte. 59",
        "DIRECCION": "",
        "LATITUD": "43.26806621207158",
        "LONGITUD": "-2.961570676262768"
    },
    {
        "PROVINCIA": "48",
        "DESCRIPCION_PROVINCIA": "BIZKAIA",
        "MUNICIPIO": "020",
        "DESCRIPCION_MUNICIPIO": "BILBAO",
        "PARADA": "1509",
        "DENOMINACION": "RIBERA DE DEUSTU 57",
        "DIRECCION": "",
        "LATITUD": "43.26795817265396",
        "LONGITUD": "-2.961352722385112"
    },
    {
        "PROVINCIA": "48",
        "DESCRIPCION_PROVINCIA": "BIZKAIA",
        "MUNICIPIO": "020",
        "DESCRIPCION_MUNICIPIO": "BILBAO",
        "PARADA": "1511",
        "DENOMINACION": "ZORROTZAURRE fte. 17",
        "DIRECCION": "",
        "LATITUD": "43.27469600659348",
        "LONGITUD": "-2.9671633125660244"
    },
    {
        "PROVINCIA": "48",
        "DESCRIPCION_PROVINCIA": "BIZKAIA",
        "MUNICIPIO": "020",
        "DESCRIPCION_MUNICIPIO": "BILBAO",
        "PARADA": "1513",
        "DENOMINACION": "ZORROTZAURRE fte. 9",
        "DIRECCION": "",
        "LATITUD": "43.2726151099504",
        "LONGITUD": "-2.9653660409619347"
    },
    {
        "PROVINCIA": "48",
        "DESCRIPCION_PROVINCIA": "BIZKAIA",
        "MUNICIPIO": "020",
        "DESCRIPCION_MUNICIPIO": "BILBAO",
        "PARADA": "1514",
        "DENOMINACION": "ZORROTZAURRE 17",
        "DIRECCION": "",
        "LATITUD": "43.27457343604304",
        "LONGITUD": "-2.9669656787781635"
    },
    {
        "PROVINCIA": "48",
        "DESCRIPCION_PROVINCIA": "BIZKAIA",
        "MUNICIPIO": "020",
        "DESCRIPCION_MUNICIPIO": "BILBAO",
        "PARADA": "1515",
        "DENOMINACION": "ZORROTZAURRE 9",
        "DIRECCION": "",
        "LATITUD": "43.27246290170146",
        "LONGITUD": "-2.9652314817580656"
    },
    {
        "PROVINCIA": "48",
        "DESCRIPCION_PROVINCIA": "BIZKAIA",
        "MUNICIPIO": "020",
        "DESCRIPCION_MUNICIPIO": "BILBAO",
        "PARADA": "1518",
        "DENOMINACION": "GENERAL ERASO / CLÍNICA IMQ",
        "DIRECCION": "",
        "LATITUD": "43.267789539851286",
        "LONGITUD": "-2.95140746902999"
    },
    {
        "PROVINCIA": "48",
        "DESCRIPCION_PROVINCIA": "BIZKAIA",
        "MUNICIPIO": "020",
        "DESCRIPCION_MUNICIPIO": "BILBAO",
        "PARADA": "1519",
        "DENOMINACION": "JULIO URQUIJO",
        "DIRECCION": "",
        "LATITUD": "43.26819874023209",
        "LONGITUD": "-2.954048285004532"
    },
    {
        "PROVINCIA": "48",
        "DESCRIPCION_PROVINCIA": "BIZKAIA",
        "MUNICIPIO": "020",
        "DESCRIPCION_MUNICIPIO": "BILBAO",
        "PARADA": "1520",
        "DENOMINACION": "ZORROTZAURRE 2",
        "DIRECCION": "",
        "LATITUD": "43.27140064139072",
        "LONGITUD": "-2.964677508918187"
    },
    {
        "PROVINCIA": "48",
        "DESCRIPCION_PROVINCIA": "BIZKAIA",
        "MUNICIPIO": "020",
        "DESCRIPCION_MUNICIPIO": "BILBAO",
        "PARADA": "1522",
        "DENOMINACION": "CARGUERAS 17",
        "DIRECCION": "",
        "LATITUD": "43.26710437587062",
        "LONGITUD": "-2.958604057587308"
    },
    {
        "PROVINCIA": "48",
        "DESCRIPCION_PROVINCIA": "BIZKAIA",
        "MUNICIPIO": "020",
        "DESCRIPCION_MUNICIPIO": "BILBAO",
        "PARADA": "1523",
        "DENOMINACION": "CARGUERAS 1",
        "DIRECCION": "",
        "LATITUD": "43.26656139765256",
        "LONGITUD": "-2.956226308477045"
    },
    {
        "PROVINCIA": "48",
        "DESCRIPCION_PROVINCIA": "BIZKAIA",
        "MUNICIPIO": "020",
        "DESCRIPCION_MUNICIPIO": "BILBAO",
        "PARADA": "1525",
        "DENOMINACION": "GALLETERAS / PUENTE FRANK GEHRY",
        "DIRECCION": "",
        "LATITUD": "43.26681382894328",
        "LONGITUD": "-2.9555859318333195"
    },
    {
        "PROVINCIA": "48",
        "DESCRIPCION_PROVINCIA": "BIZKAIA",
        "MUNICIPIO": "020",
        "DESCRIPCION_MUNICIPIO": "BILBAO",
        "PARADA": "1527",
        "DENOMINACION": "GALLETERAS 42",
        "DIRECCION": "",
        "LATITUD": "43.27762183239536",
        "LONGITUD": "-2.9667449909698727"
    },
    {
        "PROVINCIA": "48",
        "DESCRIPCION_PROVINCIA": "BIZKAIA",
        "MUNICIPIO": "020",
        "DESCRIPCION_MUNICIPIO": "BILBAO",
        "PARADA": "1528",
        "DENOMINACION": "GALLETERAS PUNTA NORTE",
        "DIRECCION": "",
        "LATITUD": "43.279733202707455",
        "LONGITUD": "-2.967602585733512"
    },
    {
        "PROVINCIA": "48",
        "DESCRIPCION_PROVINCIA": "BIZKAIA",
        "MUNICIPIO": "020",
        "DESCRIPCION_MUNICIPIO": "BILBAO",
        "PARADA": "1529",
        "DENOMINACION": "CARGUERAS / esq. GALLETERAS",
        "DIRECCION": "",
        "LATITUD": "43.26759166624635",
        "LONGITUD": "-2.9585792385380647"
    },
    {
        "PROVINCIA": "48",
        "DESCRIPCION_PROVINCIA": "BIZKAIA",
        "MUNICIPIO": "020",
        "DESCRIPCION_MUNICIPIO": "BILBAO",
        "PARADA": "1601",
        "DENOMINACION": "ARANEKO 17",
        "DIRECCION": "",
        "LATITUD": "43.274125275639925",
        "LONGITUD": "-2.948478590441811"
    },
    {
        "PROVINCIA": "48",
        "DESCRIPCION_PROVINCIA": "BIZKAIA",
        "MUNICIPIO": "020",
        "DESCRIPCION_MUNICIPIO": "BILBAO",
        "PARADA": "1602",
        "DENOMINACION": "BERRIZBIDEA",
        "DIRECCION": "",
        "LATITUD": "43.27607077376946",
        "LONGITUD": "-2.949553833915304"
    },
    {
        "PROVINCIA": "48",
        "DESCRIPCION_PROVINCIA": "BIZKAIA",
        "MUNICIPIO": "020",
        "DESCRIPCION_MUNICIPIO": "BILBAO",
        "PARADA": "1603",
        "DENOMINACION": "EGILEOR 4",
        "DIRECCION": "",
        "LATITUD": "43.27444104159488",
        "LONGITUD": "-2.947265987687586"
    },
    {
        "PROVINCIA": "48",
        "DESCRIPCION_PROVINCIA": "BIZKAIA",
        "MUNICIPIO": "020",
        "DESCRIPCION_MUNICIPIO": "BILBAO",
        "PARADA": "1604",
        "DENOMINACION": "MONTE GANETA fte. 7",
        "DIRECCION": "",
        "LATITUD": "43.27542065351462",
        "LONGITUD": "-2.9474762069714644"
    },
    {
        "PROVINCIA": "48",
        "DESCRIPCION_PROVINCIA": "BIZKAIA",
        "MUNICIPIO": "020",
        "DESCRIPCION_MUNICIPIO": "BILBAO",
        "PARADA": "1605",
        "DENOMINACION": "CAMINO MIRAMAR / ESCUELA",
        "DIRECCION": "",
        "LATITUD": "43.27541407418927",
        "LONGITUD": "-2.949682345558911"
    },
    {
        "PROVINCIA": "48",
        "DESCRIPCION_PROVINCIA": "BIZKAIA",
        "MUNICIPIO": "020",
        "DESCRIPCION_MUNICIPIO": "BILBAO",
        "PARADA": "1606",
        "DENOMINACION": "VIRGEN DEL PINAR 5",
        "DIRECCION": "",
        "LATITUD": "43.27658387378793",
        "LONGITUD": "-2.9505568246923586"
    },
    {
        "PROVINCIA": "48",
        "DESCRIPCION_PROVINCIA": "BIZKAIA",
        "MUNICIPIO": "020",
        "DESCRIPCION_MUNICIPIO": "BILBAO",
        "PARADA": "1607",
        "DENOMINACION": "VIRGEN DEL PINAR 9",
        "DIRECCION": "",
        "LATITUD": "43.27615677305589",
        "LONGITUD": "-2.95015030770545"
    },
    {
        "PROVINCIA": "48",
        "DESCRIPCION_PROVINCIA": "BIZKAIA",
        "MUNICIPIO": "020",
        "DESCRIPCION_MUNICIPIO": "BILBAO",
        "PARADA": "1608",
        "DENOMINACION": "GANEKOGORTA 10",
        "DIRECCION": "",
        "LATITUD": "43.27477412486347",
        "LONGITUD": "-2.9469123569406745"
    },
    {
        "PROVINCIA": "48",
        "DESCRIPCION_PROVINCIA": "BIZKAIA",
        "MUNICIPIO": "020",
        "DESCRIPCION_MUNICIPIO": "BILBAO",
        "PARADA": "1609",
        "DENOMINACION": "GORBEIA fte. 3",
        "DIRECCION": "",
        "LATITUD": "43.27440155473959",
        "LONGITUD": "-2.9458173052549848"
    },
    {
        "PROVINCIA": "48",
        "DESCRIPCION_PROVINCIA": "BIZKAIA",
        "MUNICIPIO": "020",
        "DESCRIPCION_MUNICIPIO": "BILBAO",
        "PARADA": "1701",
        "DENOMINACION": "ARANEKO / CEMENTERIO",
        "DIRECCION": "",
        "LATITUD": "43.2754748941458",
        "LONGITUD": "-2.9524388428412323"
    },
    {
        "PROVINCIA": "48",
        "DESCRIPCION_PROVINCIA": "BIZKAIA",
        "MUNICIPIO": "020",
        "DESCRIPCION_MUNICIPIO": "BILBAO",
        "PARADA": "1702",
        "DENOMINACION": "CAMINO MIRAMAR fte. 47",
        "DIRECCION": "",
        "LATITUD": "43.27683092790987",
        "LONGITUD": "-2.953205003724475"
    },
    {
        "PROVINCIA": "48",
        "DESCRIPCION_PROVINCIA": "BIZKAIA",
        "MUNICIPIO": "020",
        "DESCRIPCION_MUNICIPIO": "BILBAO",
        "PARADA": "1703",
        "DENOMINACION": "CAMINO MIRAMAR / ARANEKOBIDEA",
        "DIRECCION": "",
        "LATITUD": "43.276567040448974",
        "LONGITUD": "-2.953885114862393"
    },
    {
        "PROVINCIA": "48",
        "DESCRIPCION_PROVINCIA": "BIZKAIA",
        "MUNICIPIO": "020",
        "DESCRIPCION_MUNICIPIO": "BILBAO",
        "PARADA": "1705",
        "DENOMINACION": "ENEKURI / GASOLINERA",
        "DIRECCION": "",
        "LATITUD": "43.28604459289626",
        "LONGITUD": "-2.958393102248076"
    },
    {
        "PROVINCIA": "48",
        "DESCRIPCION_PROVINCIA": "BIZKAIA",
        "MUNICIPIO": "020",
        "DESCRIPCION_MUNICIPIO": "BILBAO",
        "PARADA": "1706",
        "DENOMINACION": "ENEKURI",
        "DIRECCION": "",
        "LATITUD": "43.28960714715664",
        "LONGITUD": "-2.960733552028076"
    },
    {
        "PROVINCIA": "48",
        "DESCRIPCION_PROVINCIA": "BIZKAIA",
        "MUNICIPIO": "020",
        "DESCRIPCION_MUNICIPIO": "BILBAO",
        "PARADA": "1707",
        "DENOMINACION": "ENEKURI / fte. SAN PABLO",
        "DIRECCION": "",
        "LATITUD": "43.28760000747901",
        "LONGITUD": "-2.9575677562603087"
    },
    {
        "PROVINCIA": "48",
        "DESCRIPCION_PROVINCIA": "BIZKAIA",
        "MUNICIPIO": "020",
        "DESCRIPCION_MUNICIPIO": "BILBAO",
        "PARADA": "1708",
        "DENOMINACION": "ELORRIAGA",
        "DIRECCION": "",
        "LATITUD": "43.283110418054434",
        "LONGITUD": "-2.953029990156556"
    },
    {
        "PROVINCIA": "48",
        "DESCRIPCION_PROVINCIA": "BIZKAIA",
        "MUNICIPIO": "020",
        "DESCRIPCION_MUNICIPIO": "BILBAO",
        "PARADA": "1709",
        "DENOMINACION": "BERRIZ / CAMPO DE TIRO",
        "DIRECCION": "",
        "LATITUD": "43.279215476358885",
        "LONGITUD": "-2.946092605422792"
    },
    {
        "PROVINCIA": "48",
        "DESCRIPCION_PROVINCIA": "BIZKAIA",
        "MUNICIPIO": "020",
        "DESCRIPCION_MUNICIPIO": "BILBAO",
        "PARADA": "1710",
        "DENOMINACION": "ESCUELA DE HOSTELERÍA",
        "DIRECCION": "",
        "LATITUD": "43.279726581040414",
        "LONGITUD": "-2.941718264400304"
    },
    {
        "PROVINCIA": "48",
        "DESCRIPCION_PROVINCIA": "BIZKAIA",
        "MUNICIPIO": "020",
        "DESCRIPCION_MUNICIPIO": "BILBAO",
        "PARADA": "1711",
        "DENOMINACION": "AIXERROTA",
        "DIRECCION": "",
        "LATITUD": "43.27820258241827",
        "LONGITUD": "-2.9349884720221104"
    },
    {
        "PROVINCIA": "48",
        "DESCRIPCION_PROVINCIA": "BIZKAIA",
        "MUNICIPIO": "020",
        "DESCRIPCION_MUNICIPIO": "BILBAO",
        "PARADA": "1712",
        "DENOMINACION": "MONTE ELORRIAGA",
        "DIRECCION": "",
        "LATITUD": "43.27539922498045",
        "LONGITUD": "-2.9537073758080155"
    },
    {
        "PROVINCIA": "48",
        "DESCRIPCION_PROVINCIA": "BIZKAIA",
        "MUNICIPIO": "020",
        "DESCRIPCION_MUNICIPIO": "BILBAO",
        "PARADA": "2101",
        "DENOMINACION": "CAMPO VOLANTÍN fte. 21",
        "DIRECCION": "",
        "LATITUD": "43.26645455958322",
        "LONGITUD": "-2.926880411256807"
    },
    {
        "PROVINCIA": "48",
        "DESCRIPCION_PROVINCIA": "BIZKAIA",
        "MUNICIPIO": "020",
        "DESCRIPCION_MUNICIPIO": "BILBAO",
        "PARADA": "2103",
        "DENOMINACION": "CAMPO VOLANTÍN / LA SALVE",
        "DIRECCION": "",
        "LATITUD": "43.26925149195703",
        "LONGITUD": "-2.930403173470628"
    },
    {
        "PROVINCIA": "48",
        "DESCRIPCION_PROVINCIA": "BIZKAIA",
        "MUNICIPIO": "020",
        "DESCRIPCION_MUNICIPIO": "BILBAO",
        "PARADA": "2104",
        "DENOMINACION": "CAMPO VOLANTÍN 13",
        "DIRECCION": "",
        "LATITUD": "43.26525050073609",
        "LONGITUD": "-2.9252762720406227"
    },
    {
        "PROVINCIA": "48",
        "DESCRIPCION_PROVINCIA": "BIZKAIA",
        "MUNICIPIO": "020",
        "DESCRIPCION_MUNICIPIO": "BILBAO",
        "PARADA": "2105",
        "DENOMINACION": "CAMPO VOLANTÍN 23",
        "DIRECCION": "",
        "LATITUD": "43.26684978740986",
        "LONGITUD": "-2.92728834230176"
    },
    {
        "PROVINCIA": "48",
        "DESCRIPCION_PROVINCIA": "BIZKAIA",
        "MUNICIPIO": "020",
        "DESCRIPCION_MUNICIPIO": "BILBAO",
        "PARADA": "2107",
        "DENOMINACION": "FUNICULAR",
        "DIRECCION": "",
        "LATITUD": "43.268390828107535",
        "LONGITUD": "-2.9265305695107044"
    },
    {
        "PROVINCIA": "48",
        "DESCRIPCION_PROVINCIA": "BIZKAIA",
        "MUNICIPIO": "020",
        "DESCRIPCION_MUNICIPIO": "BILBAO",
        "PARADA": "2108",
        "DENOMINACION": "AYUNTAMIENTO",
        "DIRECCION": "",
        "LATITUD": "43.26395019372736",
        "LONGITUD": "-2.9236109174400475"
    },
    {
        "PROVINCIA": "48",
        "DESCRIPCION_PROVINCIA": "BIZKAIA",
        "MUNICIPIO": "020",
        "DESCRIPCION_MUNICIPIO": "BILBAO",
        "PARADA": "2109",
        "DENOMINACION": "PUENTE LA SALVE ",
        "DIRECCION": "",
        "LATITUD": "43.26969982551061",
        "LONGITUD": "-2.9314352320980426"
    },
    {
        "PROVINCIA": "48",
        "DESCRIPCION_PROVINCIA": "BIZKAIA",
        "MUNICIPIO": "020",
        "DESCRIPCION_MUNICIPIO": "BILBAO",
        "PARADA": "2110",
        "DENOMINACION": "TIBOLI 1",
        "DIRECCION": "",
        "LATITUD": "43.266228531951285",
        "LONGITUD": "-2.9255432469671603"
    },
    {
        "PROVINCIA": "48",
        "DESCRIPCION_PROVINCIA": "BIZKAIA",
        "MUNICIPIO": "020",
        "DESCRIPCION_MUNICIPIO": "BILBAO",
        "PARADA": "2111",
        "DENOMINACION": "TRISTÁN DE LEGUIZAMÓN 5",
        "DIRECCION": "",
        "LATITUD": "43.26918661940144",
        "LONGITUD": "-2.928717800281042"
    },
    {
        "PROVINCIA": "48",
        "DESCRIPCION_PROVINCIA": "BIZKAIA",
        "MUNICIPIO": "020",
        "DESCRIPCION_MUNICIPIO": "BILBAO",
        "PARADA": "2112",
        "DENOMINACION": "Fte. AYUNTAMIENTO",
        "DIRECCION": "",
        "LATITUD": "43.26408699121292",
        "LONGITUD": "-2.9239777666455025"
    },
    {
        "PROVINCIA": "48",
        "DESCRIPCION_PROVINCIA": "BIZKAIA",
        "MUNICIPIO": "020",
        "DESCRIPCION_MUNICIPIO": "BILBAO",
        "PARADA": "2201",
        "DENOMINACION": "ANSELMA DE SALCES fte.2",
        "DIRECCION": "",
        "LATITUD": "43.2662755333121",
        "LONGITUD": "-2.9229438340940046"
    },
    {
        "PROVINCIA": "48",
        "DESCRIPCION_PROVINCIA": "BIZKAIA",
        "MUNICIPIO": "020",
        "DESCRIPCION_MUNICIPIO": "BILBAO",
        "PARADA": "2202",
        "DENOMINACION": "CRISTO 1",
        "DIRECCION": "",
        "LATITUD": "43.26500185887019",
        "LONGITUD": "-2.922528777328687"
    },
    {
        "PROVINCIA": "48",
        "DESCRIPCION_PROVINCIA": "BIZKAIA",
        "MUNICIPIO": "020",
        "DESCRIPCION_MUNICIPIO": "BILBAO",
        "PARADA": "2203",
        "DENOMINACION": "MATIKO 1",
        "DIRECCION": "",
        "LATITUD": "43.26812152238621",
        "LONGITUD": "-2.924576848529429"
    },
    {
        "PROVINCIA": "48",
        "DESCRIPCION_PROVINCIA": "BIZKAIA",
        "MUNICIPIO": "020",
        "DESCRIPCION_MUNICIPIO": "BILBAO",
        "PARADA": "2205",
        "DENOMINACION": "RICARDO ARREGUI 33",
        "DIRECCION": "",
        "LATITUD": "43.26932396972519",
        "LONGITUD": "-2.924655940173656"
    },
    {
        "PROVINCIA": "48",
        "DESCRIPCION_PROVINCIA": "BIZKAIA",
        "MUNICIPIO": "020",
        "DESCRIPCION_MUNICIPIO": "BILBAO",
        "PARADA": "2206",
        "DENOMINACION": "TIBOLI 12",
        "DIRECCION": "",
        "LATITUD": "43.26720423474512",
        "LONGITUD": "-2.92523661029916"
    },
    {
        "PROVINCIA": "48",
        "DESCRIPCION_PROVINCIA": "BIZKAIA",
        "MUNICIPIO": "020",
        "DESCRIPCION_MUNICIPIO": "BILBAO",
        "PARADA": "2207",
        "DENOMINACION": "MATIKO 27",
        "DIRECCION": "",
        "LATITUD": "43.26693425199883",
        "LONGITUD": "-2.922787107186814"
    },
    {
        "PROVINCIA": "48",
        "DESCRIPCION_PROVINCIA": "BIZKAIA",
        "MUNICIPIO": "020",
        "DESCRIPCION_MUNICIPIO": "BILBAO",
        "PARADA": "2301",
        "DENOMINACION": "MAURICE RAVEL / CIUDAD JARDÍN",
        "DIRECCION": "",
        "LATITUD": "43.27010353238742",
        "LONGITUD": "-2.926055728581749"
    },
    {
        "PROVINCIA": "48",
        "DESCRIPCION_PROVINCIA": "BIZKAIA",
        "MUNICIPIO": "020",
        "DESCRIPCION_MUNICIPIO": "BILBAO",
        "PARADA": "2302",
        "DENOMINACION": "VÍA VIEJA DE LEZAMA 85",
        "DIRECCION": "",
        "LATITUD": "43.27237096737138",
        "LONGITUD": "-2.92539966930264"
    },
    {
        "PROVINCIA": "48",
        "DESCRIPCION_PROVINCIA": "BIZKAIA",
        "MUNICIPIO": "020",
        "DESCRIPCION_MUNICIPIO": "BILBAO",
        "PARADA": "2303",
        "DENOMINACION": "VÍA VIEJA DE LEZAMA 93",
        "DIRECCION": "",
        "LATITUD": "43.27269846954187",
        "LONGITUD": "-2.926042817049765"
    },
    {
        "PROVINCIA": "48",
        "DESCRIPCION_PROVINCIA": "BIZKAIA",
        "MUNICIPIO": "020",
        "DESCRIPCION_MUNICIPIO": "BILBAO",
        "PARADA": "2401",
        "DENOMINACION": "MONTE ALDAMIZ / TELEFÓNICA",
        "DIRECCION": "",
        "LATITUD": "43.26832173843261",
        "LONGITUD": "-2.918694738745895"
    },
    {
        "PROVINCIA": "48",
        "DESCRIPCION_PROVINCIA": "BIZKAIA",
        "MUNICIPIO": "020",
        "DESCRIPCION_MUNICIPIO": "BILBAO",
        "PARADA": "2402",
        "DENOMINACION": "MONTE IZARO 8",
        "DIRECCION": "",
        "LATITUD": "43.26749257607656",
        "LONGITUD": "-2.9198860562573614"
    },
    {
        "PROVINCIA": "48",
        "DESCRIPCION_PROVINCIA": "BIZKAIA",
        "MUNICIPIO": "020",
        "DESCRIPCION_MUNICIPIO": "BILBAO",
        "PARADA": "2403",
        "DENOMINACION": "MAURICE RAVEL / fte. MIRADOR ",
        "DIRECCION": "",
        "LATITUD": "43.26965883600944",
        "LONGITUD": "-2.9225069385463547"
    },
    {
        "PROVINCIA": "48",
        "DESCRIPCION_PROVINCIA": "BIZKAIA",
        "MUNICIPIO": "020",
        "DESCRIPCION_MUNICIPIO": "BILBAO",
        "PARADA": "2404",
        "DENOMINACION": "MAURICE RAVEL / MIRADOR ",
        "DIRECCION": "",
        "LATITUD": "43.269848089633925",
        "LONGITUD": "-2.922583776660781"
    },
    {
        "PROVINCIA": "48",
        "DESCRIPCION_PROVINCIA": "BIZKAIA",
        "MUNICIPIO": "020",
        "DESCRIPCION_MUNICIPIO": "BILBAO",
        "PARADA": "2405",
        "DENOMINACION": "MAURICE RAVEL 20 ",
        "DIRECCION": "",
        "LATITUD": "43.26783394092937",
        "LONGITUD": "-2.9184451105616054"
    },
    {
        "PROVINCIA": "48",
        "DESCRIPCION_PROVINCIA": "BIZKAIA",
        "MUNICIPIO": "020",
        "DESCRIPCION_MUNICIPIO": "BILBAO",
        "PARADA": "2406",
        "DENOMINACION": "MAURICE RAVEL 7",
        "DIRECCION": "",
        "LATITUD": "43.26764974928689",
        "LONGITUD": "-2.9184891245244726"
    },
    {
        "PROVINCIA": "48",
        "DESCRIPCION_PROVINCIA": "BIZKAIA",
        "MUNICIPIO": "020",
        "DESCRIPCION_MUNICIPIO": "BILBAO",
        "PARADA": "2407",
        "DENOMINACION": "MÚSICO GURIDI",
        "DIRECCION": "",
        "LATITUD": "43.265611624750335",
        "LONGITUD": "-2.916922389239797"
    },
    {
        "PROVINCIA": "48",
        "DESCRIPCION_PROVINCIA": "BIZKAIA",
        "MUNICIPIO": "020",
        "DESCRIPCION_MUNICIPIO": "BILBAO",
        "PARADA": "2408",
        "DENOMINACION": "SAN VALENTÍN DE BERRIOTXOA",
        "DIRECCION": "",
        "LATITUD": "43.26614816686536",
        "LONGITUD": "-2.9180635639101946"
    },
    {
        "PROVINCIA": "48",
        "DESCRIPCION_PROVINCIA": "BIZKAIA",
        "MUNICIPIO": "020",
        "DESCRIPCION_MUNICIPIO": "BILBAO",
        "PARADA": "2409",
        "DENOMINACION": "TRAUKO fte. 5",
        "DIRECCION": "",
        "LATITUD": "43.267195150047066",
        "LONGITUD": "-2.9213867933167403"
    },
    {
        "PROVINCIA": "48",
        "DESCRIPCION_PROVINCIA": "BIZKAIA",
        "MUNICIPIO": "020",
        "DESCRIPCION_MUNICIPIO": "BILBAO",
        "PARADA": "2410",
        "DENOMINACION": "TRAUKO 3",
        "DIRECCION": "",
        "LATITUD": "43.267281240426506",
        "LONGITUD": "-2.9215573335577734"
    },
    {
        "PROVINCIA": "48",
        "DESCRIPCION_PROVINCIA": "BIZKAIA",
        "MUNICIPIO": "020",
        "DESCRIPCION_MUNICIPIO": "BILBAO",
        "PARADA": "2411",
        "DENOMINACION": "VÍA VIEJA DE LEZAMA /  NUEVA AURORA",
        "DIRECCION": "",
        "LATITUD": "43.269336944760326",
        "LONGITUD": "-2.9186862366898905"
    },
    {
        "PROVINCIA": "48",
        "DESCRIPCION_PROVINCIA": "BIZKAIA",
        "MUNICIPIO": "020",
        "DESCRIPCION_MUNICIPIO": "BILBAO",
        "PARADA": "2412",
        "DENOMINACION": "VÍA VIEJA DE LEZAMA 59",
        "DIRECCION": "",
        "LATITUD": "43.26802716907995",
        "LONGITUD": "-2.915742573854673"
    },
    {
        "PROVINCIA": "48",
        "DESCRIPCION_PROVINCIA": "BIZKAIA",
        "MUNICIPIO": "020",
        "DESCRIPCION_MUNICIPIO": "BILBAO",
        "PARADA": "2413",
        "DENOMINACION": "VÍA VIEJA DE LEZAMA 73",
        "DIRECCION": "",
        "LATITUD": "43.270082116799486",
        "LONGITUD": "-2.9198016349911446"
    },
    {
        "PROVINCIA": "48",
        "DESCRIPCION_PROVINCIA": "BIZKAIA",
        "MUNICIPIO": "020",
        "DESCRIPCION_MUNICIPIO": "BILBAO",
        "PARADA": "2414",
        "DENOMINACION": "VÍA VIEJA DE LEZAMA 75",
        "DIRECCION": "",
        "LATITUD": "43.27143463494489",
        "LONGITUD": "-2.9212335657681963"
    },
    {
        "PROVINCIA": "48",
        "DESCRIPCION_PROVINCIA": "BIZKAIA",
        "MUNICIPIO": "020",
        "DESCRIPCION_MUNICIPIO": "BILBAO",
        "PARADA": "2415",
        "DENOMINACION": "ZUMALACARREGUI / TOMÁS ZUBIRÍA",
        "DIRECCION": "",
        "LATITUD": "43.26491981366199",
        "LONGITUD": "-2.9183880460380665"
    },
    {
        "PROVINCIA": "48",
        "DESCRIPCION_PROVINCIA": "BIZKAIA",
        "MUNICIPIO": "020",
        "DESCRIPCION_MUNICIPIO": "BILBAO",
        "PARADA": "2416",
        "DENOMINACION": "TRAUKO 14",
        "DIRECCION": "",
        "LATITUD": "43.26672871838964",
        "LONGITUD": "-2.91979021869812"
    },
    {
        "PROVINCIA": "48",
        "DESCRIPCION_PROVINCIA": "BIZKAIA",
        "MUNICIPIO": "020",
        "DESCRIPCION_MUNICIPIO": "BILBAO",
        "PARADA": "2417",
        "DENOMINACION": "TRAUKO fte. 14",
        "DIRECCION": "",
        "LATITUD": "43.266718136208205",
        "LONGITUD": "-2.919613086186784"
    },
    {
        "PROVINCIA": "48",
        "DESCRIPCION_PROVINCIA": "BIZKAIA",
        "MUNICIPIO": "020",
        "DESCRIPCION_MUNICIPIO": "BILBAO",
        "PARADA": "2501",
        "DENOMINACION": "ANDRAMARIA DE BEGOÑA",
        "DIRECCION": "",
        "LATITUD": "43.26228940981077",
        "LONGITUD": "-2.9131359459765225"
    },
    {
        "PROVINCIA": "48",
        "DESCRIPCION_PROVINCIA": "BIZKAIA",
        "MUNICIPIO": "020",
        "DESCRIPCION_MUNICIPIO": "BILBAO",
        "PARADA": "2502",
        "DENOMINACION": "ARABELLA",
        "DIRECCION": "",
        "LATITUD": "43.26127329927372",
        "LONGITUD": "-2.911466022429244"
    },
    {
        "PROVINCIA": "48",
        "DESCRIPCION_PROVINCIA": "BIZKAIA",
        "MUNICIPIO": "020",
        "DESCRIPCION_MUNICIPIO": "BILBAO",
        "PARADA": "2503",
        "DENOMINACION": "BUEN PASTOR ",
        "DIRECCION": "",
        "LATITUD": "43.26545559839504",
        "LONGITUD": "-2.9167480282994296"
    },
    {
        "PROVINCIA": "48",
        "DESCRIPCION_PROVINCIA": "BIZKAIA",
        "MUNICIPIO": "020",
        "DESCRIPCION_MUNICIPIO": "BILBAO",
        "PARADA": "2504",
        "DENOMINACION": "SAN ISIDRO",
        "DIRECCION": "",
        "LATITUD": "43.26067761015011",
        "LONGITUD": "-2.912647076152306"
    },
    {
        "PROVINCIA": "48",
        "DESCRIPCION_PROVINCIA": "BIZKAIA",
        "MUNICIPIO": "020",
        "DESCRIPCION_MUNICIPIO": "BILBAO",
        "PARADA": "2505",
        "DENOMINACION": "VÍA VIEJA DE LEZAMA / ITURRIONDO",
        "DIRECCION": "",
        "LATITUD": "43.26466624247788",
        "LONGITUD": "-2.9136984343316343"
    },
    {
        "PROVINCIA": "48",
        "DESCRIPCION_PROVINCIA": "BIZKAIA",
        "MUNICIPIO": "020",
        "DESCRIPCION_MUNICIPIO": "BILBAO",
        "PARADA": "2506",
        "DENOMINACION": "VÍA VIEJA DE LEZAMA 2",
        "DIRECCION": "",
        "LATITUD": "43.26241090202127",
        "LONGITUD": "-2.9153597379026936"
    },
    {
        "PROVINCIA": "48",
        "DESCRIPCION_PROVINCIA": "BIZKAIA",
        "MUNICIPIO": "020",
        "DESCRIPCION_MUNICIPIO": "BILBAO",
        "PARADA": "2507",
        "DENOMINACION": "VÍA VIEJA DE LEZAMA 35",
        "DIRECCION": "",
        "LATITUD": "43.26532834565092",
        "LONGITUD": "-2.913366373973044"
    },
    {
        "PROVINCIA": "48",
        "DESCRIPCION_PROVINCIA": "BIZKAIA",
        "MUNICIPIO": "020",
        "DESCRIPCION_MUNICIPIO": "BILBAO",
        "PARADA": "2508",
        "DENOMINACION": "ZUMALACARREGUI 105",
        "DIRECCION": "",
        "LATITUD": "43.26155050505264",
        "LONGITUD": "-2.9153266733534693"
    },
    {
        "PROVINCIA": "48",
        "DESCRIPCION_PROVINCIA": "BIZKAIA",
        "MUNICIPIO": "020",
        "DESCRIPCION_MUNICIPIO": "BILBAO",
        "PARADA": "2509",
        "DENOMINACION": "ZUMALACARREGUI 121",
        "DIRECCION": "",
        "LATITUD": "43.260334596771415",
        "LONGITUD": "-2.9141214958545163"
    },
    {
        "PROVINCIA": "48",
        "DESCRIPCION_PROVINCIA": "BIZKAIA",
        "MUNICIPIO": "020",
        "DESCRIPCION_MUNICIPIO": "BILBAO",
        "PARADA": "2510",
        "DENOMINACION": "ZURBARANBARRI",
        "DIRECCION": "",
        "LATITUD": "43.264759732481686",
        "LONGITUD": "-2.911889123454388"
    },
    {
        "PROVINCIA": "48",
        "DESCRIPCION_PROVINCIA": "BIZKAIA",
        "MUNICIPIO": "020",
        "DESCRIPCION_MUNICIPIO": "BILBAO",
        "PARADA": "2601",
        "DENOMINACION": "SARRIKUE",
        "DIRECCION": "",
        "LATITUD": "43.26283395491451",
        "LONGITUD": "-2.911054810253145"
    },
    {
        "PROVINCIA": "48",
        "DESCRIPCION_PROVINCIA": "BIZKAIA",
        "MUNICIPIO": "020",
        "DESCRIPCION_MUNICIPIO": "BILBAO",
        "PARADA": "2602",
        "DENOMINACION": "ZABALBIDE fte. 112 ",
        "DIRECCION": "",
        "LATITUD": "43.26117124587648",
        "LONGITUD": "-2.911178254125796"
    },
    {
        "PROVINCIA": "48",
        "DESCRIPCION_PROVINCIA": "BIZKAIA",
        "MUNICIPIO": "020",
        "DESCRIPCION_MUNICIPIO": "BILBAO",
        "PARADA": "2605",
        "DENOMINACION": "ZABALBIDE 221",
        "DIRECCION": "",
        "LATITUD": "43.2645907723531",
        "LONGITUD": "-2.9079778550734066"
    },
    {
        "PROVINCIA": "48",
        "DESCRIPCION_PROVINCIA": "BIZKAIA",
        "MUNICIPIO": "020",
        "DESCRIPCION_MUNICIPIO": "BILBAO",
        "PARADA": "2701",
        "DENOMINACION": "VÍA VIEJA DE LEZAMA / MONTAÑO",
        "DIRECCION": "",
        "LATITUD": "43.271399915279225",
        "LONGITUD": "-2.921120945838912"
    },
    {
        "PROVINCIA": "48",
        "DESCRIPCION_PROVINCIA": "BIZKAIA",
        "MUNICIPIO": "020",
        "DESCRIPCION_MUNICIPIO": "BILBAO",
        "PARADA": "2702",
        "DENOMINACION": "VÍA VIEJA DE LEZAMA fte. 85",
        "DIRECCION": "",
        "LATITUD": "43.27236174058226",
        "LONGITUD": "-2.9251693851405567"
    },
    {
        "PROVINCIA": "48",
        "DESCRIPCION_PROVINCIA": "BIZKAIA",
        "MUNICIPIO": "020",
        "DESCRIPCION_MUNICIPIO": "BILBAO",
        "PARADA": "2703",
        "DENOMINACION": "VÍA VIEJA DE LEZAMA 70",
        "DIRECCION": "",
        "LATITUD": "43.26790584851416",
        "LONGITUD": "-2.91555403282742"
    },
    {
        "PROVINCIA": "48",
        "DESCRIPCION_PROVINCIA": "BIZKAIA",
        "MUNICIPIO": "020",
        "DESCRIPCION_MUNICIPIO": "BILBAO",
        "PARADA": "2704",
        "DENOMINACION": "VÍA VIEJA DE LEZAMA 78",
        "DIRECCION": "",
        "LATITUD": "43.26942173105317",
        "LONGITUD": "-2.9188675600240783"
    },
    {
        "PROVINCIA": "48",
        "DESCRIPCION_PROVINCIA": "BIZKAIA",
        "MUNICIPIO": "020",
        "DESCRIPCION_MUNICIPIO": "BILBAO",
        "PARADA": "2705",
        "DENOMINACION": "VÍA VIEJA DE LEZAMA 82",
        "DIRECCION": "",
        "LATITUD": "43.2701006080206",
        "LONGITUD": "-2.9197578553773704"
    },
    {
        "PROVINCIA": "48",
        "DESCRIPCION_PROVINCIA": "BIZKAIA",
        "MUNICIPIO": "020",
        "DESCRIPCION_MUNICIPIO": "BILBAO",
        "PARADA": "2706",
        "DENOMINACION": "ARTXANDA / COLEGIO JESÚS MARÍA",
        "DIRECCION": "",
        "LATITUD": "43.27693814818462",
        "LONGITUD": "-2.926550218820737"
    },
    {
        "PROVINCIA": "48",
        "DESCRIPCION_PROVINCIA": "BIZKAIA",
        "MUNICIPIO": "020",
        "DESCRIPCION_MUNICIPIO": "BILBAO",
        "PARADA": "2707",
        "DENOMINACION": "ARTXANDA / NOGARO",
        "DIRECCION": "",
        "LATITUD": "43.27612319706401",
        "LONGITUD": "-2.924280759711764"
    },
    {
        "PROVINCIA": "48",
        "DESCRIPCION_PROVINCIA": "BIZKAIA",
        "MUNICIPIO": "020",
        "DESCRIPCION_MUNICIPIO": "BILBAO",
        "PARADA": "2708",
        "DENOMINACION": "ARTXANDA / FUNICULAR",
        "DIRECCION": "",
        "LATITUD": "43.27438150101048",
        "LONGITUD": "-2.919703724375005"
    },
    {
        "PROVINCIA": "48",
        "DESCRIPCION_PROVINCIA": "BIZKAIA",
        "MUNICIPIO": "020",
        "DESCRIPCION_MUNICIPIO": "BILBAO",
        "PARADA": "2709",
        "DENOMINACION": "ARTXANDA / POLIDEPORTIVO",
        "DIRECCION": "",
        "LATITUD": "43.27359059214936",
        "LONGITUD": "-2.917554952096764"
    },
    {
        "PROVINCIA": "48",
        "DESCRIPCION_PROVINCIA": "BIZKAIA",
        "MUNICIPIO": "020",
        "DESCRIPCION_MUNICIPIO": "BILBAO",
        "PARADA": "2710",
        "DENOMINACION": "ARTXANDA / LA ESPERANZA",
        "DIRECCION": "",
        "LATITUD": "43.2716676551653",
        "LONGITUD": "-2.91340739526502"
    },
    {
        "PROVINCIA": "48",
        "DESCRIPCION_PROVINCIA": "BIZKAIA",
        "MUNICIPIO": "020",
        "DESCRIPCION_MUNICIPIO": "BILBAO",
        "PARADA": "2711",
        "DENOMINACION": "ARTXANDA / MIRADOR",
        "DIRECCION": "",
        "LATITUD": "43.26922255326866",
        "LONGITUD": "-2.908918355062707"
    },
    {
        "PROVINCIA": "48",
        "DESCRIPCION_PROVINCIA": "BIZKAIA",
        "MUNICIPIO": "020",
        "DESCRIPCION_MUNICIPIO": "BILBAO",
        "PARADA": "2713",
        "DENOMINACION": "ATXETABIDEA / JESUITINAS",
        "DIRECCION": "",
        "LATITUD": "43.26415471497374",
        "LONGITUD": "-2.9089856911397254"
    },
    {
        "PROVINCIA": "48",
        "DESCRIPCION_PROVINCIA": "BIZKAIA",
        "MUNICIPIO": "020",
        "DESCRIPCION_MUNICIPIO": "BILBAO",
        "PARADA": "2714",
        "DENOMINACION": "ATXETABIDEA 47",
        "DIRECCION": "",
        "LATITUD": "43.26355437903451",
        "LONGITUD": "-2.910464827213163"
    },
    {
        "PROVINCIA": "48",
        "DESCRIPCION_PROVINCIA": "BIZKAIA",
        "MUNICIPIO": "020",
        "DESCRIPCION_MUNICIPIO": "BILBAO",
        "PARADA": "27313",
        "DENOMINACION": "Gordoniz 90",
        "DIRECCION": "",
        "LATITUD": "43.249413082004125",
        "LONGITUD": "-2.946982749706532"
    },
    {
        "PROVINCIA": "48",
        "DESCRIPCION_PROVINCIA": "BIZKAIA",
        "MUNICIPIO": "020",
        "DESCRIPCION_MUNICIPIO": "BILBAO",
        "PARADA": "27508",
        "DENOMINACION": "Circunvalación 1",
        "DIRECCION": "",
        "LATITUD": "43.25125926739874",
        "LONGITUD": "-2.948910567000933"
    },
    {
        "PROVINCIA": "48",
        "DESCRIPCION_PROVINCIA": "BIZKAIA",
        "MUNICIPIO": "020",
        "DESCRIPCION_MUNICIPIO": "BILBAO",
        "PARADA": "27509",
        "DENOMINACION": "Circunvalación 12",
        "DIRECCION": "",
        "LATITUD": "43.24987623523271",
        "LONGITUD": "-2.949516442271439"
    },
    {
        "PROVINCIA": "48",
        "DESCRIPCION_PROVINCIA": "BIZKAIA",
        "MUNICIPIO": "020",
        "DESCRIPCION_MUNICIPIO": "BILBAO",
        "PARADA": "27510",
        "DENOMINACION": "Uretamendi / Plaza",
        "DIRECCION": "",
        "LATITUD": "43.248702289523365",
        "LONGITUD": "-2.9493523767892382"
    },
    {
        "PROVINCIA": "48",
        "DESCRIPCION_PROVINCIA": "BIZKAIA",
        "MUNICIPIO": "020",
        "DESCRIPCION_MUNICIPIO": "BILBAO",
        "PARADA": "3101",
        "DENOMINACION": "ARBOLANTXA 18",
        "DIRECCION": "",
        "LATITUD": "43.26083405353671",
        "LONGITUD": "-2.896711294769652"
    },
    {
        "PROVINCIA": "48",
        "DESCRIPCION_PROVINCIA": "BIZKAIA",
        "MUNICIPIO": "020",
        "DESCRIPCION_MUNICIPIO": "BILBAO",
        "PARADA": "3102",
        "DENOMINACION": "JULIÁN GAIARRE fte. 61",
        "DIRECCION": "",
        "LATITUD": "43.257348462919154",
        "LONGITUD": "-2.899156113136908"
    },
    {
        "PROVINCIA": "48",
        "DESCRIPCION_PROVINCIA": "BIZKAIA",
        "MUNICIPIO": "020",
        "DESCRIPCION_MUNICIPIO": "BILBAO",
        "PARADA": "3103",
        "DENOMINACION": "KEPA ENBEITA \"URRETXINDORRA\"",
        "DIRECCION": "",
        "LATITUD": "43.25941340448329",
        "LONGITUD": "-2.90036755616761"
    },
    {
        "PROVINCIA": "48",
        "DESCRIPCION_PROVINCIA": "BIZKAIA",
        "MUNICIPIO": "020",
        "DESCRIPCION_MUNICIPIO": "BILBAO",
        "PARADA": "3104",
        "DENOMINACION": "LANGARAN fte. 3 ",
        "DIRECCION": "",
        "LATITUD": "43.25796275760078",
        "LONGITUD": "-2.8980435226483223"
    },
    {
        "PROVINCIA": "48",
        "DESCRIPCION_PROVINCIA": "BIZKAIA",
        "MUNICIPIO": "020",
        "DESCRIPCION_MUNICIPIO": "BILBAO",
        "PARADA": "3105",
        "DENOMINACION": "LANGARAN 44",
        "DIRECCION": "",
        "LATITUD": "43.260535245747725",
        "LONGITUD": "-2.8979657593034367"
    },
    {
        "PROVINCIA": "48",
        "DESCRIPCION_PROVINCIA": "BIZKAIA",
        "MUNICIPIO": "020",
        "DESCRIPCION_MUNICIPIO": "BILBAO",
        "PARADA": "3106",
        "DENOMINACION": "LARRATUNDU 21",
        "DIRECCION": "",
        "LATITUD": "43.26086891982194",
        "LONGITUD": "-2.898879682807427"
    },
    {
        "PROVINCIA": "48",
        "DESCRIPCION_PROVINCIA": "BIZKAIA",
        "MUNICIPIO": "020",
        "DESCRIPCION_MUNICIPIO": "BILBAO",
        "PARADA": "3107",
        "DENOMINACION": "PAU CASALS fte. 21",
        "DIRECCION": "",
        "LATITUD": "43.257716612370686",
        "LONGITUD": "-2.899105166548453"
    },
    {
        "PROVINCIA": "48",
        "DESCRIPCION_PROVINCIA": "BIZKAIA",
        "MUNICIPIO": "020",
        "DESCRIPCION_MUNICIPIO": "BILBAO",
        "PARADA": "3108",
        "DENOMINACION": "PAU CASALS / JESÚS GALÍNDEZ",
        "DIRECCION": "",
        "LATITUD": "43.25869169590728",
        "LONGITUD": "-2.902777166093796"
    },
    {
        "PROVINCIA": "48",
        "DESCRIPCION_PROVINCIA": "BIZKAIA",
        "MUNICIPIO": "020",
        "DESCRIPCION_MUNICIPIO": "BILBAO",
        "PARADA": "3109",
        "DENOMINACION": "PAU CASALS 16",
        "DIRECCION": "",
        "LATITUD": "43.25935010218301",
        "LONGITUD": "-2.9003891513284272"
    },
    {
        "PROVINCIA": "48",
        "DESCRIPCION_PROVINCIA": "BIZKAIA",
        "MUNICIPIO": "020",
        "DESCRIPCION_MUNICIPIO": "BILBAO",
        "PARADA": "3110",
        "DENOMINACION": "TXOTENA  / LANGARAN",
        "DIRECCION": "",
        "LATITUD": "43.25893085693836",
        "LONGITUD": "-2.897773836025991"
    },
    {
        "PROVINCIA": "48",
        "DESCRIPCION_PROVINCIA": "BIZKAIA",
        "MUNICIPIO": "020",
        "DESCRIPCION_MUNICIPIO": "BILBAO",
        "PARADA": "3111",
        "DENOMINACION": "TXOTENA 62",
        "DIRECCION": "",
        "LATITUD": "43.25875658235001",
        "LONGITUD": "-2.896757730561251"
    },
    {
        "PROVINCIA": "48",
        "DESCRIPCION_PROVINCIA": "BIZKAIA",
        "MUNICIPIO": "020",
        "DESCRIPCION_MUNICIPIO": "BILBAO",
        "PARADA": "3112",
        "DENOMINACION": "TXOTENA 8",
        "DIRECCION": "",
        "LATITUD": "43.25741918181442",
        "LONGITUD": "-2.8965892349167337"
    },
    {
        "PROVINCIA": "48",
        "DESCRIPCION_PROVINCIA": "BIZKAIA",
        "MUNICIPIO": "020",
        "DESCRIPCION_MUNICIPIO": "BILBAO",
        "PARADA": "3113",
        "DENOMINACION": "UGARTE fte. 7",
        "DIRECCION": "",
        "LATITUD": "43.260622470368695",
        "LONGITUD": "-2.901301589652995"
    },
    {
        "PROVINCIA": "48",
        "DESCRIPCION_PROVINCIA": "BIZKAIA",
        "MUNICIPIO": "020",
        "DESCRIPCION_MUNICIPIO": "BILBAO",
        "PARADA": "3114",
        "DENOMINACION": "UGARTE 2",
        "DIRECCION": "",
        "LATITUD": "43.26136812376386",
        "LONGITUD": "-2.9004281843549675"
    },
    {
        "PROVINCIA": "48",
        "DESCRIPCION_PROVINCIA": "BIZKAIA",
        "MUNICIPIO": "020",
        "DESCRIPCION_MUNICIPIO": "BILBAO",
        "PARADA": "3115",
        "DENOMINACION": "ZIZERUENA / IGLESIA",
        "DIRECCION": "",
        "LATITUD": "43.25970463412926",
        "LONGITUD": "-2.9005579572980675"
    },
    {
        "PROVINCIA": "48",
        "DESCRIPCION_PROVINCIA": "BIZKAIA",
        "MUNICIPIO": "020",
        "DESCRIPCION_MUNICIPIO": "BILBAO",
        "PARADA": "3116",
        "DENOMINACION": "ZIZERUENA 22",
        "DIRECCION": "",
        "LATITUD": "43.26135535829718",
        "LONGITUD": "-2.8996311236527506"
    },
    {
        "PROVINCIA": "48",
        "DESCRIPCION_PROVINCIA": "BIZKAIA",
        "MUNICIPIO": "020",
        "DESCRIPCION_MUNICIPIO": "BILBAO",
        "PARADA": "3201",
        "DENOMINACION": "ARTALANDIO 3 ",
        "DIRECCION": "",
        "LATITUD": "43.25627504254327",
        "LONGITUD": "-2.9038323882375474"
    },
    {
        "PROVINCIA": "48",
        "DESCRIPCION_PROVINCIA": "BIZKAIA",
        "MUNICIPIO": "020",
        "DESCRIPCION_MUNICIPIO": "BILBAO",
        "PARADA": "3202",
        "DENOMINACION": "ORNILLA fte.12",
        "DIRECCION": "",
        "LATITUD": "43.25493123066948",
        "LONGITUD": "-2.9072610139667736"
    },
    {
        "PROVINCIA": "48",
        "DESCRIPCION_PROVINCIA": "BIZKAIA",
        "MUNICIPIO": "020",
        "DESCRIPCION_MUNICIPIO": "BILBAO",
        "PARADA": "3203",
        "DENOMINACION": "ORNILLA / ARTALANDIO",
        "DIRECCION": "",
        "LATITUD": "43.256140270319634",
        "LONGITUD": "-2.904465922008065"
    },
    {
        "PROVINCIA": "48",
        "DESCRIPCION_PROVINCIA": "BIZKAIA",
        "MUNICIPIO": "020",
        "DESCRIPCION_MUNICIPIO": "BILBAO",
        "PARADA": "3204",
        "DENOMINACION": "ORNILLA / PAU CASALS",
        "DIRECCION": "",
        "LATITUD": "43.25846013911308",
        "LONGITUD": "-2.902775398045424"
    },
    {
        "PROVINCIA": "48",
        "DESCRIPCION_PROVINCIA": "BIZKAIA",
        "MUNICIPIO": "020",
        "DESCRIPCION_MUNICIPIO": "BILBAO",
        "PARADA": "3205",
        "DENOMINACION": "FERNANDO JIMÉNEZ 12 ",
        "DIRECCION": "",
        "LATITUD": "43.25080284762458",
        "LONGITUD": "-2.904580327607836"
    },
    {
        "PROVINCIA": "48",
        "DESCRIPCION_PROVINCIA": "BIZKAIA",
        "MUNICIPIO": "020",
        "DESCRIPCION_MUNICIPIO": "BILBAO",
        "PARADA": "3206",
        "DENOMINACION": "GABRIEL ARESTI / fte. AMBULATORIO",
        "DIRECCION": "",
        "LATITUD": "43.25743747536786",
        "LONGITUD": "-2.9072558164010216"
    },
    {
        "PROVINCIA": "48",
        "DESCRIPCION_PROVINCIA": "BIZKAIA",
        "MUNICIPIO": "020",
        "DESCRIPCION_MUNICIPIO": "BILBAO",
        "PARADA": "3208",
        "DENOMINACION": "GARAIZAR fte. 16 ",
        "DIRECCION": "",
        "LATITUD": "43.260386644727774",
        "LONGITUD": "-2.903357127534292"
    },
    {
        "PROVINCIA": "48",
        "DESCRIPCION_PROVINCIA": "BIZKAIA",
        "MUNICIPIO": "020",
        "DESCRIPCION_MUNICIPIO": "BILBAO",
        "PARADA": "3209",
        "DENOMINACION": "GARAIZAR / IKASTOLA",
        "DIRECCION": "",
        "LATITUD": "43.261541742658665",
        "LONGITUD": "-2.904877872508608"
    },
    {
        "PROVINCIA": "48",
        "DESCRIPCION_PROVINCIA": "BIZKAIA",
        "MUNICIPIO": "020",
        "DESCRIPCION_MUNICIPIO": "BILBAO",
        "PARADA": "3210",
        "DENOMINACION": "JESÚS GALÍNDEZ / ADORATRICES",
        "DIRECCION": "",
        "LATITUD": "43.26040664959431",
        "LONGITUD": "-2.904699085385285"
    },
    {
        "PROVINCIA": "48",
        "DESCRIPCION_PROVINCIA": "BIZKAIA",
        "MUNICIPIO": "020",
        "DESCRIPCION_MUNICIPIO": "BILBAO",
        "PARADA": "3211",
        "DENOMINACION": "JESÚS GALÍNDEZ / TXOMIN GARAT",
        "DIRECCION": "",
        "LATITUD": "43.2578502654497",
        "LONGITUD": "-2.90975474083455"
    },
    {
        "PROVINCIA": "48",
        "DESCRIPCION_PROVINCIA": "BIZKAIA",
        "MUNICIPIO": "020",
        "DESCRIPCION_MUNICIPIO": "BILBAO",
        "PARADA": "3213",
        "DENOMINACION": "JESÚS GALÍNDEZ 26",
        "DIRECCION": "",
        "LATITUD": "43.26038265659776",
        "LONGITUD": "-2.9048286266042447"
    },
    {
        "PROVINCIA": "48",
        "DESCRIPCION_PROVINCIA": "BIZKAIA",
        "MUNICIPIO": "020",
        "DESCRIPCION_MUNICIPIO": "BILBAO",
        "PARADA": "3214",
        "DENOMINACION": "JESÚS GALÍNDEZ 3",
        "DIRECCION": "",
        "LATITUD": "43.25895988504767",
        "LONGITUD": "-2.909066199594644"
    },
    {
        "PROVINCIA": "48",
        "DESCRIPCION_PROVINCIA": "BIZKAIA",
        "MUNICIPIO": "020",
        "DESCRIPCION_MUNICIPIO": "BILBAO",
        "PARADA": "3215",
        "DENOMINACION": "JULIÁN GAIARRE fte. 39 ",
        "DIRECCION": "",
        "LATITUD": "43.25551551852772",
        "LONGITUD": "-2.900763135350122"
    },
    {
        "PROVINCIA": "48",
        "DESCRIPCION_PROVINCIA": "BIZKAIA",
        "MUNICIPIO": "020",
        "DESCRIPCION_MUNICIPIO": "BILBAO",
        "PARADA": "3216",
        "DENOMINACION": "JULIÁN GAIARRE fte. 6",
        "DIRECCION": "",
        "LATITUD": "43.25036228446567",
        "LONGITUD": "-2.9037231462420423"
    },
    {
        "PROVINCIA": "48",
        "DESCRIPCION_PROVINCIA": "BIZKAIA",
        "MUNICIPIO": "020",
        "DESCRIPCION_MUNICIPIO": "BILBAO",
        "PARADA": "3217",
        "DENOMINACION": "JULIÁN GAIARRE 10",
        "DIRECCION": "",
        "LATITUD": "43.25074250180216",
        "LONGITUD": "-2.9033976733844065"
    },
    {
        "PROVINCIA": "48",
        "DESCRIPCION_PROVINCIA": "BIZKAIA",
        "MUNICIPIO": "020",
        "DESCRIPCION_MUNICIPIO": "BILBAO",
        "PARADA": "3218",
        "DENOMINACION": "JULIÁN GAIARRE 23",
        "DIRECCION": "",
        "LATITUD": "43.25302192842432",
        "LONGITUD": "-2.9022797783755507"
    },
    {
        "PROVINCIA": "48",
        "DESCRIPCION_PROVINCIA": "BIZKAIA",
        "MUNICIPIO": "020",
        "DESCRIPCION_MUNICIPIO": "BILBAO",
        "PARADA": "3219",
        "DENOMINACION": "JULIÁN GAIARRE 33",
        "DIRECCION": "",
        "LATITUD": "43.25505062048432",
        "LONGITUD": "-2.9011735796445626"
    },
    {
        "PROVINCIA": "48",
        "DESCRIPCION_PROVINCIA": "BIZKAIA",
        "MUNICIPIO": "020",
        "DESCRIPCION_MUNICIPIO": "BILBAO",
        "PARADA": "3220",
        "DENOMINACION": "JULIÁN GAIARRE 36",
        "DIRECCION": "",
        "LATITUD": "43.25255571051634",
        "LONGITUD": "-2.902398629945597"
    },
    {
        "PROVINCIA": "48",
        "DESCRIPCION_PROVINCIA": "BIZKAIA",
        "MUNICIPIO": "020",
        "DESCRIPCION_MUNICIPIO": "BILBAO",
        "PARADA": "3221",
        "DENOMINACION": "JULIÁN GAIARRE 39 ",
        "DIRECCION": "",
        "LATITUD": "43.255589417034926",
        "LONGITUD": "-2.9007811249852056"
    },
    {
        "PROVINCIA": "48",
        "DESCRIPCION_PROVINCIA": "BIZKAIA",
        "MUNICIPIO": "020",
        "DESCRIPCION_MUNICIPIO": "BILBAO",
        "PARADA": "3222",
        "DENOMINACION": "JULIÁN GAIARRE 61",
        "DIRECCION": "",
        "LATITUD": "43.257399517881",
        "LONGITUD": "-2.8992207289280048"
    },
    {
        "PROVINCIA": "48",
        "DESCRIPCION_PROVINCIA": "BIZKAIA",
        "MUNICIPIO": "020",
        "DESCRIPCION_MUNICIPIO": "BILBAO",
        "PARADA": "3223",
        "DENOMINACION": "JULIÁN GAIARRE 82",
        "DIRECCION": "",
        "LATITUD": "43.254974490966816",
        "LONGITUD": "-2.9010917366657614"
    },
    {
        "PROVINCIA": "48",
        "DESCRIPCION_PROVINCIA": "BIZKAIA",
        "MUNICIPIO": "020",
        "DESCRIPCION_MUNICIPIO": "BILBAO",
        "PARADA": "3224",
        "DENOMINACION": "ONDARROA / PARQUE",
        "DIRECCION": "",
        "LATITUD": "43.25337938849479",
        "LONGITUD": "-2.9037759748975653"
    },
    {
        "PROVINCIA": "48",
        "DESCRIPCION_PROVINCIA": "BIZKAIA",
        "MUNICIPIO": "020",
        "DESCRIPCION_MUNICIPIO": "BILBAO",
        "PARADA": "3225",
        "DENOMINACION": "TXOMIN GARAT 12",
        "DIRECCION": "",
        "LATITUD": "43.25686284099281",
        "LONGITUD": "-2.9068844015821007"
    },
    {
        "PROVINCIA": "48",
        "DESCRIPCION_PROVINCIA": "BIZKAIA",
        "MUNICIPIO": "020",
        "DESCRIPCION_MUNICIPIO": "BILBAO",
        "PARADA": "3226",
        "DENOMINACION": "TXOMIN GARAT 4",
        "DIRECCION": "",
        "LATITUD": "43.25724915172792",
        "LONGITUD": "-2.9098947022232835"
    },
    {
        "PROVINCIA": "48",
        "DESCRIPCION_PROVINCIA": "BIZKAIA",
        "MUNICIPIO": "020",
        "DESCRIPCION_MUNICIPIO": "BILBAO",
        "PARADA": "3227",
        "DENOMINACION": "TXOMIN GARAT 40 ",
        "DIRECCION": "",
        "LATITUD": "43.256505237459166",
        "LONGITUD": "-2.904805803325807"
    },
    {
        "PROVINCIA": "48",
        "DESCRIPCION_PROVINCIA": "BIZKAIA",
        "MUNICIPIO": "020",
        "DESCRIPCION_MUNICIPIO": "BILBAO",
        "PARADA": "3228",
        "DENOMINACION": "TXOMIN GARAT 9 ",
        "DIRECCION": "",
        "LATITUD": "43.2570549472966",
        "LONGITUD": "-2.9069053813957133"
    },
    {
        "PROVINCIA": "48",
        "DESCRIPCION_PROVINCIA": "BIZKAIA",
        "MUNICIPIO": "020",
        "DESCRIPCION_MUNICIPIO": "BILBAO",
        "PARADA": "3229",
        "DENOMINACION": "ZABALBIDE fte. 61",
        "DIRECCION": "",
        "LATITUD": "43.25799481414788",
        "LONGITUD": "-2.911003590826922"
    },
    {
        "PROVINCIA": "48",
        "DESCRIPCION_PROVINCIA": "BIZKAIA",
        "MUNICIPIO": "020",
        "DESCRIPCION_MUNICIPIO": "BILBAO",
        "PARADA": "3230",
        "DENOMINACION": "ZUMALACARREGUI / fte. MAKUA",
        "DIRECCION": "",
        "LATITUD": "43.25698876309675",
        "LONGITUD": "-2.911876598221986"
    },
    {
        "PROVINCIA": "48",
        "DESCRIPCION_PROVINCIA": "BIZKAIA",
        "MUNICIPIO": "020",
        "DESCRIPCION_MUNICIPIO": "BILBAO",
        "PARADA": "3231",
        "DENOMINACION": "AMBULATORIO TXURDINAGA",
        "DIRECCION": "",
        "LATITUD": "43.25721890582618",
        "LONGITUD": "-2.908245232142338"
    },
    {
        "PROVINCIA": "48",
        "DESCRIPCION_PROVINCIA": "BIZKAIA",
        "MUNICIPIO": "020",
        "DESCRIPCION_MUNICIPIO": "BILBAO",
        "PARADA": "3232",
        "DENOMINACION": "ZABALBIDE 110A",
        "DIRECCION": "",
        "LATITUD": "43.26064356890687",
        "LONGITUD": "-2.911699989076316"
    },
    {
        "PROVINCIA": "48",
        "DESCRIPCION_PROVINCIA": "BIZKAIA",
        "MUNICIPIO": "020",
        "DESCRIPCION_MUNICIPIO": "BILBAO",
        "PARADA": "3301",
        "DENOMINACION": "ORUETA",
        "DIRECCION": "",
        "LATITUD": "43.265074382498",
        "LONGITUD": "-2.903382595212568"
    },
    {
        "PROVINCIA": "48",
        "DESCRIPCION_PROVINCIA": "BIZKAIA",
        "MUNICIPIO": "020",
        "DESCRIPCION_MUNICIPIO": "BILBAO",
        "PARADA": "3302",
        "DENOMINACION": "Fte. ORUETA",
        "DIRECCION": "",
        "LATITUD": "43.26504679295397",
        "LONGITUD": "-2.9032022196044007"
    },
    {
        "PROVINCIA": "48",
        "DESCRIPCION_PROVINCIA": "BIZKAIA",
        "MUNICIPIO": "020",
        "DESCRIPCION_MUNICIPIO": "BILBAO",
        "PARADA": "3303",
        "DENOMINACION": "MIKOLETA",
        "DIRECCION": "",
        "LATITUD": "43.26629138494975",
        "LONGITUD": "-2.899017990095609"
    },
    {
        "PROVINCIA": "48",
        "DESCRIPCION_PROVINCIA": "BIZKAIA",
        "MUNICIPIO": "020",
        "DESCRIPCION_MUNICIPIO": "BILBAO",
        "PARADA": "3304",
        "DENOMINACION": "Fte. MIKOLETA",
        "DIRECCION": "",
        "LATITUD": "43.26589311635793",
        "LONGITUD": "-2.8974019340732347"
    },
    {
        "PROVINCIA": "48",
        "DESCRIPCION_PROVINCIA": "BIZKAIA",
        "MUNICIPIO": "020",
        "DESCRIPCION_MUNICIPIO": "BILBAO",
        "PARADA": "3305",
        "DENOMINACION": "ETXEARTE",
        "DIRECCION": "",
        "LATITUD": "43.26459452649624",
        "LONGITUD": "-2.8900179448471546"
    },
    {
        "PROVINCIA": "48",
        "DESCRIPCION_PROVINCIA": "BIZKAIA",
        "MUNICIPIO": "020",
        "DESCRIPCION_MUNICIPIO": "BILBAO",
        "PARADA": "3306",
        "DENOMINACION": "Fte. ETXEARTE",
        "DIRECCION": "",
        "LATITUD": "43.26440921941472",
        "LONGITUD": "-2.889893897298721"
    },
    {
        "PROVINCIA": "48",
        "DESCRIPCION_PROVINCIA": "BIZKAIA",
        "MUNICIPIO": "020",
        "DESCRIPCION_MUNICIPIO": "BILBAO",
        "PARADA": "3307",
        "DENOMINACION": "HOSPITAL SANTA MARINA",
        "DIRECCION": "",
        "LATITUD": "43.26232359121368",
        "LONGITUD": "-2.883058317882877"
    },
    {
        "PROVINCIA": "48",
        "DESCRIPCION_PROVINCIA": "BIZKAIA",
        "MUNICIPIO": "020",
        "DESCRIPCION_MUNICIPIO": "BILBAO",
        "PARADA": "4101",
        "DENOMINACION": "AMADEO DEPRIT / DOLARETXE",
        "DIRECCION": "",
        "LATITUD": "43.25782786303269",
        "LONGITUD": "-2.916804185281644"
    },
    {
        "PROVINCIA": "48",
        "DESCRIPCION_PROVINCIA": "BIZKAIA",
        "MUNICIPIO": "020",
        "DESCRIPCION_MUNICIPIO": "BILBAO",
        "PARADA": "4102",
        "DENOMINACION": "AMADEO DEPRIT / PEDRO CORTÉS",
        "DIRECCION": "",
        "LATITUD": "43.2600571046812",
        "LONGITUD": "-2.917070979231432"
    },
    {
        "PROVINCIA": "48",
        "DESCRIPCION_PROVINCIA": "BIZKAIA",
        "MUNICIPIO": "020",
        "DESCRIPCION_MUNICIPIO": "BILBAO",
        "PARADA": "4103",
        "DENOMINACION": "AMADEO DEPRIT 8",
        "DIRECCION": "",
        "LATITUD": "43.26027824919457",
        "LONGITUD": "-2.916767412040155"
    },
    {
        "PROVINCIA": "48",
        "DESCRIPCION_PROVINCIA": "BIZKAIA",
        "MUNICIPIO": "020",
        "DESCRIPCION_MUNICIPIO": "BILBAO",
        "PARADA": "4104",
        "DENOMINACION": "BASÍLICA DE BEGOÑA",
        "DIRECCION": "",
        "LATITUD": "43.25900105953868",
        "LONGITUD": "-2.913919532577202"
    },
    {
        "PROVINCIA": "48",
        "DESCRIPCION_PROVINCIA": "BIZKAIA",
        "MUNICIPIO": "020",
        "DESCRIPCION_MUNICIPIO": "BILBAO",
        "PARADA": "4105",
        "DENOMINACION": "MAKUA",
        "DIRECCION": "",
        "LATITUD": "43.25688694946779",
        "LONGITUD": "-2.912054673889378"
    },
    {
        "PROVINCIA": "48",
        "DESCRIPCION_PROVINCIA": "BIZKAIA",
        "MUNICIPIO": "020",
        "DESCRIPCION_MUNICIPIO": "BILBAO",
        "PARADA": "4106",
        "DENOMINACION": "MASUSTEGI fte. 21",
        "DIRECCION": "",
        "LATITUD": "43.257456698258686",
        "LONGITUD": "-2.9134899963640613"
    },
    {
        "PROVINCIA": "48",
        "DESCRIPCION_PROVINCIA": "BIZKAIA",
        "MUNICIPIO": "020",
        "DESCRIPCION_MUNICIPIO": "BILBAO",
        "PARADA": "4107",
        "DENOMINACION": "MASUSTEGI 21",
        "DIRECCION": "",
        "LATITUD": "43.25727484448244",
        "LONGITUD": "-2.9136664998673933"
    },
    {
        "PROVINCIA": "48",
        "DESCRIPCION_PROVINCIA": "BIZKAIA",
        "MUNICIPIO": "020",
        "DESCRIPCION_MUNICIPIO": "BILBAO",
        "PARADA": "4108",
        "DENOMINACION": "MASUSTEGI 3",
        "DIRECCION": "",
        "LATITUD": "43.25600325909656",
        "LONGITUD": "-2.913150830613661"
    },
    {
        "PROVINCIA": "48",
        "DESCRIPCION_PROVINCIA": "BIZKAIA",
        "MUNICIPIO": "020",
        "DESCRIPCION_MUNICIPIO": "BILBAO",
        "PARADA": "4109",
        "DENOMINACION": "ZUMALACARREGUI 38",
        "DIRECCION": "",
        "LATITUD": "43.26079520482737",
        "LONGITUD": "-2.914866064421405"
    },
    {
        "PROVINCIA": "48",
        "DESCRIPCION_PROVINCIA": "BIZKAIA",
        "MUNICIPIO": "020",
        "DESCRIPCION_MUNICIPIO": "BILBAO",
        "PARADA": "4201",
        "DENOMINACION": "ANTONIO EGUILUZ 19",
        "DIRECCION": "",
        "LATITUD": "43.25069475102282",
        "LONGITUD": "-2.9118957307773474"
    },
    {
        "PROVINCIA": "48",
        "DESCRIPCION_PROVINCIA": "BIZKAIA",
        "MUNICIPIO": "020",
        "DESCRIPCION_MUNICIPIO": "BILBAO",
        "PARADA": "4202",
        "DENOMINACION": "CIRCO AMATEUR / POLIDEPORTIVO",
        "DIRECCION": "",
        "LATITUD": "43.249584680297474",
        "LONGITUD": "-2.9084859422556866"
    },
    {
        "PROVINCIA": "48",
        "DESCRIPCION_PROVINCIA": "BIZKAIA",
        "MUNICIPIO": "020",
        "DESCRIPCION_MUNICIPIO": "BILBAO",
        "PARADA": "4203",
        "DENOMINACION": "ENRIQUE IBARRETA 2",
        "DIRECCION": "",
        "LATITUD": "43.25447407599853",
        "LONGITUD": "-2.9108061352244463"
    },
    {
        "PROVINCIA": "48",
        "DESCRIPCION_PROVINCIA": "BIZKAIA",
        "MUNICIPIO": "020",
        "DESCRIPCION_MUNICIPIO": "BILBAO",
        "PARADA": "4204",
        "DENOMINACION": "INDALECIO PRIETO fte. 12",
        "DIRECCION": "",
        "LATITUD": "43.25001162032345",
        "LONGITUD": "-2.9175309618604763"
    },
    {
        "PROVINCIA": "48",
        "DESCRIPCION_PROVINCIA": "BIZKAIA",
        "MUNICIPIO": "020",
        "DESCRIPCION_MUNICIPIO": "BILBAO",
        "PARADA": "4205",
        "DENOMINACION": "INDALECIO PRIETO 1",
        "DIRECCION": "",
        "LATITUD": "43.24890405576424",
        "LONGITUD": "-2.919389764681991"
    },
    {
        "PROVINCIA": "48",
        "DESCRIPCION_PROVINCIA": "BIZKAIA",
        "MUNICIPIO": "020",
        "DESCRIPCION_MUNICIPIO": "BILBAO",
        "PARADA": "4206",
        "DENOMINACION": "INDALECIO PRIETO 16",
        "DIRECCION": "",
        "LATITUD": "43.25001408319466",
        "LONGITUD": "-2.916903085494895"
    },
    {
        "PROVINCIA": "48",
        "DESCRIPCION_PROVINCIA": "BIZKAIA",
        "MUNICIPIO": "020",
        "DESCRIPCION_MUNICIPIO": "BILBAO",
        "PARADA": "4207",
        "DENOMINACION": "BASARRATE",
        "DIRECCION": "",
        "LATITUD": "43.25047317396054",
        "LONGITUD": "-2.910734230046983"
    },
    {
        "PROVINCIA": "48",
        "DESCRIPCION_PROVINCIA": "BIZKAIA",
        "MUNICIPIO": "020",
        "DESCRIPCION_MUNICIPIO": "BILBAO",
        "PARADA": "4208",
        "DENOMINACION": "ITURRIAGA 58 ",
        "DIRECCION": "",
        "LATITUD": "43.25166819180434",
        "LONGITUD": "-2.910639587041968"
    },
    {
        "PROVINCIA": "48",
        "DESCRIPCION_PROVINCIA": "BIZKAIA",
        "MUNICIPIO": "020",
        "DESCRIPCION_MUNICIPIO": "BILBAO",
        "PARADA": "4209",
        "DENOMINACION": "SANTA CLARA fte. 12",
        "DIRECCION": "",
        "LATITUD": "43.25500924909252",
        "LONGITUD": "-2.911986930045771"
    },
    {
        "PROVINCIA": "48",
        "DESCRIPCION_PROVINCIA": "BIZKAIA",
        "MUNICIPIO": "020",
        "DESCRIPCION_MUNICIPIO": "BILBAO",
        "PARADA": "4210",
        "DENOMINACION": "SANTUTXU fte.45",
        "DIRECCION": "",
        "LATITUD": "43.25101916841185",
        "LONGITUD": "-2.914774009095563"
    },
    {
        "PROVINCIA": "48",
        "DESCRIPCION_PROVINCIA": "BIZKAIA",
        "MUNICIPIO": "020",
        "DESCRIPCION_MUNICIPIO": "BILBAO",
        "PARADA": "4211",
        "DENOMINACION": "SANTUTXU 18",
        "DIRECCION": "",
        "LATITUD": "43.253102203990935",
        "LONGITUD": "-2.915651584817601"
    },
    {
        "PROVINCIA": "48",
        "DESCRIPCION_PROVINCIA": "BIZKAIA",
        "MUNICIPIO": "020",
        "DESCRIPCION_MUNICIPIO": "BILBAO",
        "PARADA": "4212",
        "DENOMINACION": "SANTUTXU 2",
        "DIRECCION": "",
        "LATITUD": "43.25464056835963",
        "LONGITUD": "-2.9169656287186734"
    },
    {
        "PROVINCIA": "48",
        "DESCRIPCION_PROVINCIA": "BIZKAIA",
        "MUNICIPIO": "020",
        "DESCRIPCION_MUNICIPIO": "BILBAO",
        "PARADA": "4213",
        "DENOMINACION": "SANTUTXU 48",
        "DIRECCION": "",
        "LATITUD": "43.251738772751",
        "LONGITUD": "-2.914694631738852"
    },
    {
        "PROVINCIA": "48",
        "DESCRIPCION_PROVINCIA": "BIZKAIA",
        "MUNICIPIO": "020",
        "DESCRIPCION_MUNICIPIO": "BILBAO",
        "PARADA": "4214",
        "DENOMINACION": "ZUMALACARREGUI 56",
        "DIRECCION": "",
        "LATITUD": "43.25573429074888",
        "LONGITUD": "-2.910915584622628"
    },
    {
        "PROVINCIA": "48",
        "DESCRIPCION_PROVINCIA": "BIZKAIA",
        "MUNICIPIO": "020",
        "DESCRIPCION_MUNICIPIO": "BILBAO",
        "PARADA": "4217",
        "DENOMINACION": "INDALECIO PRIETO / JM LIDÓN",
        "DIRECCION": "",
        "LATITUD": "43.24905515680357",
        "LONGITUD": "-2.9188585727902927"
    },
    {
        "PROVINCIA": "48",
        "DESCRIPCION_PROVINCIA": "BIZKAIA",
        "MUNICIPIO": "020",
        "DESCRIPCION_MUNICIPIO": "BILBAO",
        "PARADA": "4301",
        "DENOMINACION": "BILBAO-GALDAKAO 12",
        "DIRECCION": "",
        "LATITUD": "43.24801301658891",
        "LONGITUD": "-2.9068752158783706"
    },
    {
        "PROVINCIA": "48",
        "DESCRIPCION_PROVINCIA": "BIZKAIA",
        "MUNICIPIO": "020",
        "DESCRIPCION_MUNICIPIO": "BILBAO",
        "PARADA": "4302",
        "DENOMINACION": "CIRCO AMATEUR / fte. POLIDEPORTIVO",
        "DIRECCION": "",
        "LATITUD": "43.24991550620244",
        "LONGITUD": "-2.908656231704896"
    },
    {
        "PROVINCIA": "48",
        "DESCRIPCION_PROVINCIA": "BIZKAIA",
        "MUNICIPIO": "020",
        "DESCRIPCION_MUNICIPIO": "BILBAO",
        "PARADA": "4303",
        "DENOMINACION": "CIRCO AMATEUR / BOLUETA",
        "DIRECCION": "",
        "LATITUD": "43.24869054887717",
        "LONGITUD": "-2.906980630319516"
    },
    {
        "PROVINCIA": "48",
        "DESCRIPCION_PROVINCIA": "BIZKAIA",
        "MUNICIPIO": "020",
        "DESCRIPCION_MUNICIPIO": "BILBAO",
        "PARADA": "4304",
        "DENOMINACION": "COCHERITO DE BILBAO 14",
        "DIRECCION": "",
        "LATITUD": "43.24892447286268",
        "LONGITUD": "-2.909413243155509"
    },
    {
        "PROVINCIA": "48",
        "DESCRIPCION_PROVINCIA": "BIZKAIA",
        "MUNICIPIO": "020",
        "DESCRIPCION_MUNICIPIO": "BILBAO",
        "PARADA": "4305",
        "DENOMINACION": "SAGARMINAGA 32",
        "DIRECCION": "",
        "LATITUD": "43.24905772955464",
        "LONGITUD": "-2.913612532648227"
    },
    {
        "PROVINCIA": "48",
        "DESCRIPCION_PROVINCIA": "BIZKAIA",
        "MUNICIPIO": "020",
        "DESCRIPCION_MUNICIPIO": "BILBAO",
        "PARADA": "4306",
        "DENOMINACION": "CAMINO DEL PONTÓN / fte. IKASTOLA ",
        "DIRECCION": "",
        "LATITUD": "43.24421908762758",
        "LONGITUD": "-2.9174223112965847"
    },
    {
        "PROVINCIA": "48",
        "DESCRIPCION_PROVINCIA": "BIZKAIA",
        "MUNICIPIO": "020",
        "DESCRIPCION_MUNICIPIO": "BILBAO",
        "PARADA": "4307",
        "DENOMINACION": "CAMINO DEL PONTÓN / IKASTOLA ",
        "DIRECCION": "",
        "LATITUD": "43.24423860037465",
        "LONGITUD": "-2.91747408335554"
    },
    {
        "PROVINCIA": "48",
        "DESCRIPCION_PROVINCIA": "BIZKAIA",
        "MUNICIPIO": "020",
        "DESCRIPCION_MUNICIPIO": "BILBAO",
        "PARADA": "4308",
        "DENOMINACION": "CAMINO DEL PONTÓN 5",
        "DIRECCION": "",
        "LATITUD": "43.24642711614694",
        "LONGITUD": "-2.90959381322127"
    },
    {
        "PROVINCIA": "48",
        "DESCRIPCION_PROVINCIA": "BIZKAIA",
        "MUNICIPIO": "020",
        "DESCRIPCION_MUNICIPIO": "BILBAO",
        "PARADA": "4309",
        "DENOMINACION": "CAMINO DEL PONTÓN fte.3",
        "DIRECCION": "",
        "LATITUD": "43.24652349532441",
        "LONGITUD": "-2.909340474335847"
    },
    {
        "PROVINCIA": "48",
        "DESCRIPCION_PROVINCIA": "BIZKAIA",
        "MUNICIPIO": "020",
        "DESCRIPCION_MUNICIPIO": "BILBAO",
        "PARADA": "4310",
        "DENOMINACION": "AVENIDA MIRAFLORES / fte. GASOLINERA ",
        "DIRECCION": "",
        "LATITUD": "43.24684637512233",
        "LONGITUD": "-2.911385675818273"
    },
    {
        "PROVINCIA": "48",
        "DESCRIPCION_PROVINCIA": "BIZKAIA",
        "MUNICIPIO": "020",
        "DESCRIPCION_MUNICIPIO": "BILBAO",
        "PARADA": "4311",
        "DENOMINACION": "AVENIDA MIRAFLORES / GASOLINERA",
        "DIRECCION": "",
        "LATITUD": "43.24680147771011",
        "LONGITUD": "-2.9118097832597862"
    },
    {
        "PROVINCIA": "48",
        "DESCRIPCION_PROVINCIA": "BIZKAIA",
        "MUNICIPIO": "020",
        "DESCRIPCION_MUNICIPIO": "BILBAO",
        "PARADA": "4312",
        "DENOMINACION": "PINTOR LOSADA 26",
        "DIRECCION": "",
        "LATITUD": "43.24847013213473",
        "LONGITUD": "-2.912621103712901"
    },
    {
        "PROVINCIA": "48",
        "DESCRIPCION_PROVINCIA": "BIZKAIA",
        "MUNICIPIO": "020",
        "DESCRIPCION_MUNICIPIO": "BILBAO",
        "PARADA": "5101",
        "DENOMINACION": "ARENAL / fte. SAN NICOLÁS",
        "DIRECCION": "",
        "LATITUD": "43.26043118148161",
        "LONGITUD": "-2.9229886173074875"
    },
    {
        "PROVINCIA": "48",
        "DESCRIPCION_PROVINCIA": "BIZKAIA",
        "MUNICIPIO": "020",
        "DESCRIPCION_MUNICIPIO": "BILBAO",
        "PARADA": "5102",
        "DENOMINACION": "ARENAL / ARRIAGA",
        "DIRECCION": "",
        "LATITUD": "43.25958209288364",
        "LONGITUD": "-2.9240903260269047"
    },
    {
        "PROVINCIA": "48",
        "DESCRIPCION_PROVINCIA": "BIZKAIA",
        "MUNICIPIO": "020",
        "DESCRIPCION_MUNICIPIO": "BILBAO",
        "PARADA": "5103",
        "DENOMINACION": "ERNESTO ERKOREKA 8",
        "DIRECCION": "",
        "LATITUD": "43.26411911410296",
        "LONGITUD": "-2.9226424402292026"
    },
    {
        "PROVINCIA": "48",
        "DESCRIPCION_PROVINCIA": "BIZKAIA",
        "MUNICIPIO": "020",
        "DESCRIPCION_MUNICIPIO": "BILBAO",
        "PARADA": "5104",
        "DENOMINACION": "PÁRROCO UGAZ / ROTONDA",
        "DIRECCION": "",
        "LATITUD": "43.26143778014763",
        "LONGITUD": "-2.915922576320615"
    },
    {
        "PROVINCIA": "48",
        "DESCRIPCION_PROVINCIA": "BIZKAIA",
        "MUNICIPIO": "020",
        "DESCRIPCION_MUNICIPIO": "BILBAO",
        "PARADA": "5105",
        "DENOMINACION": "PUENTE DEL ARENAL",
        "DIRECCION": "",
        "LATITUD": "43.259815664819975",
        "LONGITUD": "-2.9241398459658763"
    },
    {
        "PROVINCIA": "48",
        "DESCRIPCION_PROVINCIA": "BIZKAIA",
        "MUNICIPIO": "020",
        "DESCRIPCION_MUNICIPIO": "BILBAO",
        "PARADA": "5106",
        "DENOMINACION": "MERCADO DE LA RIBERA",
        "DIRECCION": "",
        "LATITUD": "43.25661597276187",
        "LONGITUD": "-2.9257604252062137"
    },
    {
        "PROVINCIA": "48",
        "DESCRIPCION_PROVINCIA": "BIZKAIA",
        "MUNICIPIO": "020",
        "DESCRIPCION_MUNICIPIO": "BILBAO",
        "PARADA": "5107",
        "DENOMINACION": "SAN NICOLÁS 4",
        "DIRECCION": "",
        "LATITUD": "43.25985046840456",
        "LONGITUD": "-2.922363086375586"
    },
    {
        "PROVINCIA": "48",
        "DESCRIPCION_PROVINCIA": "BIZKAIA",
        "MUNICIPIO": "020",
        "DESCRIPCION_MUNICIPIO": "BILBAO",
        "PARADA": "5108",
        "DENOMINACION": "SENDEJA fte. 5 ",
        "DIRECCION": "",
        "LATITUD": "43.26286473064378",
        "LONGITUD": "-2.9231115037402886"
    },
    {
        "PROVINCIA": "48",
        "DESCRIPCION_PROVINCIA": "BIZKAIA",
        "MUNICIPIO": "020",
        "DESCRIPCION_MUNICIPIO": "BILBAO",
        "PARADA": "5109",
        "DENOMINACION": "UNAMUNO",
        "DIRECCION": "",
        "LATITUD": "43.25819180200335",
        "LONGITUD": "-2.9216252062474988"
    },
    {
        "PROVINCIA": "48",
        "DESCRIPCION_PROVINCIA": "BIZKAIA",
        "MUNICIPIO": "020",
        "DESCRIPCION_MUNICIPIO": "BILBAO",
        "PARADA": "5110",
        "DENOMINACION": "VIUDA DE EPALZA 1 / SAN NICOLÁS",
        "DIRECCION": "",
        "LATITUD": "43.26044030741848",
        "LONGITUD": "-2.922807807461238"
    },
    {
        "PROVINCIA": "48",
        "DESCRIPCION_PROVINCIA": "BIZKAIA",
        "MUNICIPIO": "020",
        "DESCRIPCION_MUNICIPIO": "BILBAO",
        "PARADA": "5111",
        "DENOMINACION": "ZUMALACARREGUI / fte. TOMÁS ZUBIRÍA",
        "DIRECCION": "",
        "LATITUD": "43.264769914802656",
        "LONGITUD": "-2.918466198451211"
    },
    {
        "PROVINCIA": "48",
        "DESCRIPCION_PROVINCIA": "BIZKAIA",
        "MUNICIPIO": "020",
        "DESCRIPCION_MUNICIPIO": "BILBAO",
        "PARADA": "5201",
        "DENOMINACION": "AMADEO DEPRIT 1",
        "DIRECCION": "",
        "LATITUD": "43.25777915381075",
        "LONGITUD": "-2.9168871417049247"
    },
    {
        "PROVINCIA": "48",
        "DESCRIPCION_PROVINCIA": "BIZKAIA",
        "MUNICIPIO": "020",
        "DESCRIPCION_MUNICIPIO": "BILBAO",
        "PARADA": "5202",
        "DENOMINACION": "FIKA 2",
        "DIRECCION": "",
        "LATITUD": "43.257647662786674",
        "LONGITUD": "-2.918680931026176"
    },
    {
        "PROVINCIA": "48",
        "DESCRIPCION_PROVINCIA": "BIZKAIA",
        "MUNICIPIO": "020",
        "DESCRIPCION_MUNICIPIO": "BILBAO",
        "PARADA": "5203",
        "DENOMINACION": "ITURRIBIDE 53",
        "DIRECCION": "",
        "LATITUD": "43.25689518777577",
        "LONGITUD": "-2.91702717079"
    },
    {
        "PROVINCIA": "48",
        "DESCRIPCION_PROVINCIA": "BIZKAIA",
        "MUNICIPIO": "020",
        "DESCRIPCION_MUNICIPIO": "BILBAO",
        "PARADA": "5204",
        "DENOMINACION": "PRIM 22 Bis",
        "DIRECCION": "",
        "LATITUD": "43.25762165994978",
        "LONGITUD": "-2.91769492408913"
    },
    {
        "PROVINCIA": "48",
        "DESCRIPCION_PROVINCIA": "BIZKAIA",
        "MUNICIPIO": "020",
        "DESCRIPCION_MUNICIPIO": "BILBAO",
        "PARADA": "5205",
        "DENOMINACION": "PRIM 36",
        "DIRECCION": "",
        "LATITUD": "43.25674770895696",
        "LONGITUD": "-2.9161554032716617"
    },
    {
        "PROVINCIA": "48",
        "DESCRIPCION_PROVINCIA": "BIZKAIA",
        "MUNICIPIO": "020",
        "DESCRIPCION_MUNICIPIO": "BILBAO",
        "PARADA": "5206",
        "DENOMINACION": "PRIM 52",
        "DIRECCION": "",
        "LATITUD": "43.2562805528251",
        "LONGITUD": "-2.914488532797388"
    },
    {
        "PROVINCIA": "48",
        "DESCRIPCION_PROVINCIA": "BIZKAIA",
        "MUNICIPIO": "020",
        "DESCRIPCION_MUNICIPIO": "BILBAO",
        "PARADA": "5207",
        "DENOMINACION": "PRIM 60",
        "DIRECCION": "",
        "LATITUD": "43.25714536253282",
        "LONGITUD": "-2.914498701501304"
    },
    {
        "PROVINCIA": "48",
        "DESCRIPCION_PROVINCIA": "BIZKAIA",
        "MUNICIPIO": "020",
        "DESCRIPCION_MUNICIPIO": "BILBAO",
        "PARADA": "5301",
        "DENOMINACION": "FIKA 18",
        "DIRECCION": "",
        "LATITUD": "43.25710975061246",
        "LONGITUD": "-2.9192614807966466"
    },
    {
        "PROVINCIA": "48",
        "DESCRIPCION_PROVINCIA": "BIZKAIA",
        "MUNICIPIO": "020",
        "DESCRIPCION_MUNICIPIO": "BILBAO",
        "PARADA": "5302",
        "DENOMINACION": "FIKA 22",
        "DIRECCION": "",
        "LATITUD": "43.25613597088104",
        "LONGITUD": "-2.919367496391946"
    },
    {
        "PROVINCIA": "48",
        "DESCRIPCION_PROVINCIA": "BIZKAIA",
        "MUNICIPIO": "020",
        "DESCRIPCION_MUNICIPIO": "BILBAO",
        "PARADA": "5303",
        "DENOMINACION": "FIKA 8",
        "DIRECCION": "",
        "LATITUD": "43.256965525589536",
        "LONGITUD": "-2.9186180621165647"
    },
    {
        "PROVINCIA": "48",
        "DESCRIPCION_PROVINCIA": "BIZKAIA",
        "MUNICIPIO": "020",
        "DESCRIPCION_MUNICIPIO": "BILBAO",
        "PARADA": "5304",
        "DENOMINACION": "ZABALBIDE fte.32",
        "DIRECCION": "",
        "LATITUD": "43.25527481630069",
        "LONGITUD": "-2.919432711598541"
    },
    {
        "PROVINCIA": "48",
        "DESCRIPCION_PROVINCIA": "BIZKAIA",
        "MUNICIPIO": "020",
        "DESCRIPCION_MUNICIPIO": "BILBAO",
        "PARADA": "5305",
        "DENOMINACION": "ZABALBIDE 41",
        "DIRECCION": "",
        "LATITUD": "43.25467333744964",
        "LONGITUD": "-2.914992515700172"
    },
    {
        "PROVINCIA": "48",
        "DESCRIPCION_PROVINCIA": "BIZKAIA",
        "MUNICIPIO": "020",
        "DESCRIPCION_MUNICIPIO": "BILBAO",
        "PARADA": "5306",
        "DENOMINACION": "ZABALBIDE 7",
        "DIRECCION": "",
        "LATITUD": "43.25590002040092",
        "LONGITUD": "-2.921807504043784"
    },
    {
        "PROVINCIA": "48",
        "DESCRIPCION_PROVINCIA": "BIZKAIA",
        "MUNICIPIO": "020",
        "DESCRIPCION_MUNICIPIO": "BILBAO",
        "PARADA": "5401",
        "DENOMINACION": "ATXURI fte.15 ",
        "DIRECCION": "",
        "LATITUD": "43.25362752833989",
        "LONGITUD": "-2.921382509214839"
    },
    {
        "PROVINCIA": "48",
        "DESCRIPCION_PROVINCIA": "BIZKAIA",
        "MUNICIPIO": "020",
        "DESCRIPCION_MUNICIPIO": "BILBAO",
        "PARADA": "5402",
        "DENOMINACION": "ATXURI fte. 49",
        "DIRECCION": "",
        "LATITUD": "43.251484441573794",
        "LONGITUD": "-2.9215128700865582"
    },
    {
        "PROVINCIA": "48",
        "DESCRIPCION_PROVINCIA": "BIZKAIA",
        "MUNICIPIO": "020",
        "DESCRIPCION_MUNICIPIO": "BILBAO",
        "PARADA": "5403",
        "DENOMINACION": "ATXURI 15",
        "DIRECCION": "",
        "LATITUD": "43.25361607498847",
        "LONGITUD": "-2.9213266840800647"
    },
    {
        "PROVINCIA": "48",
        "DESCRIPCION_PROVINCIA": "BIZKAIA",
        "MUNICIPIO": "020",
        "DESCRIPCION_MUNICIPIO": "BILBAO",
        "PARADA": "5404",
        "DENOMINACION": "ATXURI 49",
        "DIRECCION": "",
        "LATITUD": "43.25155098223616",
        "LONGITUD": "-2.921467102916444"
    },
    {
        "PROVINCIA": "48",
        "DESCRIPCION_PROVINCIA": "BIZKAIA",
        "MUNICIPIO": "020",
        "DESCRIPCION_MUNICIPIO": "BILBAO",
        "PARADA": "5405",
        "DENOMINACION": "DIECISÉIS DE AGOSTO",
        "DIRECCION": "",
        "LATITUD": "43.255048879427015",
        "LONGITUD": "-2.922610290025956"
    },
    {
        "PROVINCIA": "48",
        "DESCRIPCION_PROVINCIA": "BIZKAIA",
        "MUNICIPIO": "020",
        "DESCRIPCION_MUNICIPIO": "BILBAO",
        "PARADA": "5406",
        "DENOMINACION": "PLAZUELA SANTOS JUANES 4",
        "DIRECCION": "",
        "LATITUD": "43.25499955631296",
        "LONGITUD": "-2.922152357781675"
    },
    {
        "PROVINCIA": "48",
        "DESCRIPCION_PROVINCIA": "BIZKAIA",
        "MUNICIPIO": "020",
        "DESCRIPCION_MUNICIPIO": "BILBAO",
        "PARADA": "5407",
        "DENOMINACION": "PLAZUELA SANTOS JUANES 7",
        "DIRECCION": "",
        "LATITUD": "43.25511770392864",
        "LONGITUD": "-2.9221338791549263"
    },
    {
        "PROVINCIA": "48",
        "DESCRIPCION_PROVINCIA": "BIZKAIA",
        "MUNICIPIO": "020",
        "DESCRIPCION_MUNICIPIO": "BILBAO",
        "PARADA": "5501",
        "DENOMINACION": "ABUSU / IBAIALDE",
        "DIRECCION": "",
        "LATITUD": "43.2419838357701",
        "LONGITUD": "-2.923687352821496"
    },
    {
        "PROVINCIA": "48",
        "DESCRIPCION_PROVINCIA": "BIZKAIA",
        "MUNICIPIO": "020",
        "DESCRIPCION_MUNICIPIO": "BILBAO",
        "PARADA": "5502",
        "DENOMINACION": "ABUSU / IBAIEDER",
        "DIRECCION": "",
        "LATITUD": "43.24149748380031",
        "LONGITUD": "-2.9213233733997104"
    },
    {
        "PROVINCIA": "48",
        "DESCRIPCION_PROVINCIA": "BIZKAIA",
        "MUNICIPIO": "020",
        "DESCRIPCION_MUNICIPIO": "BILBAO",
        "PARADA": "5503",
        "DENOMINACION": "ABUSU / IBAIZABAL",
        "DIRECCION": "",
        "LATITUD": "43.24314822335831",
        "LONGITUD": "-2.924960528030825"
    },
    {
        "PROVINCIA": "48",
        "DESCRIPCION_PROVINCIA": "BIZKAIA",
        "MUNICIPIO": "020",
        "DESCRIPCION_MUNICIPIO": "BILBAO",
        "PARADA": "5504",
        "DENOMINACION": "BUIA / fte. BOLINTXUBIDE",
        "DIRECCION": "",
        "LATITUD": "43.23280290526149",
        "LONGITUD": "-2.9145201311315403"
    },
    {
        "PROVINCIA": "48",
        "DESCRIPCION_PROVINCIA": "BIZKAIA",
        "MUNICIPIO": "020",
        "DESCRIPCION_MUNICIPIO": "BILBAO",
        "PARADA": "5505",
        "DENOMINACION": "BUIA / BOLINTXUBIDEA",
        "DIRECCION": "",
        "LATITUD": "43.23266866389736",
        "LONGITUD": "-2.914586684341008"
    },
    {
        "PROVINCIA": "48",
        "DESCRIPCION_PROVINCIA": "BIZKAIA",
        "MUNICIPIO": "020",
        "DESCRIPCION_MUNICIPIO": "BILBAO",
        "PARADA": "5506",
        "DENOMINACION": "BARRIO BUIA fte. 153",
        "DIRECCION": "",
        "LATITUD": "43.22639641045939",
        "LONGITUD": "-2.913924338755244"
    },
    {
        "PROVINCIA": "48",
        "DESCRIPCION_PROVINCIA": "BIZKAIA",
        "MUNICIPIO": "020",
        "DESCRIPCION_MUNICIPIO": "BILBAO",
        "PARADA": "5507",
        "DENOMINACION": "BUIA AUZOA 153",
        "DIRECCION": "",
        "LATITUD": "43.22643275631263",
        "LONGITUD": "-2.914008613339224"
    },
    {
        "PROVINCIA": "48",
        "DESCRIPCION_PROVINCIA": "BIZKAIA",
        "MUNICIPIO": "020",
        "DESCRIPCION_MUNICIPIO": "BILBAO",
        "PARADA": "5508",
        "DENOMINACION": "BUIABEKOA ",
        "DIRECCION": "",
        "LATITUD": "43.227146883805226",
        "LONGITUD": "-2.916716167398835"
    },
    {
        "PROVINCIA": "48",
        "DESCRIPCION_PROVINCIA": "BIZKAIA",
        "MUNICIPIO": "020",
        "DESCRIPCION_MUNICIPIO": "BILBAO",
        "PARADA": "5509",
        "DENOMINACION": "LARRASKITUBIDEA / fte. ESTRADA BEITI",
        "DIRECCION": "",
        "LATITUD": "43.24197925981639",
        "LONGITUD": "-2.9346968457245395"
    },
    {
        "PROVINCIA": "48",
        "DESCRIPCION_PROVINCIA": "BIZKAIA",
        "MUNICIPIO": "020",
        "DESCRIPCION_MUNICIPIO": "BILBAO",
        "PARADA": "5510",
        "DENOMINACION": "LARRASKITUBIDEA 81",
        "DIRECCION": "",
        "LATITUD": "43.24291825303187",
        "LONGITUD": "-2.9380982348672333"
    },
    {
        "PROVINCIA": "48",
        "DESCRIPCION_PROVINCIA": "BIZKAIA",
        "MUNICIPIO": "020",
        "DESCRIPCION_MUNICIPIO": "BILBAO",
        "PARADA": "5511",
        "DENOMINACION": "OLLARGAN",
        "DIRECCION": "",
        "LATITUD": "43.23945917055976",
        "LONGITUD": "-2.9181860420597547"
    },
    {
        "PROVINCIA": "48",
        "DESCRIPCION_PROVINCIA": "BIZKAIA",
        "MUNICIPIO": "020",
        "DESCRIPCION_MUNICIPIO": "BILBAO",
        "PARADA": "5512",
        "DENOMINACION": "SAN ADRIÁN fte. 48",
        "DIRECCION": "",
        "LATITUD": "43.24335147981377",
        "LONGITUD": "-2.931811134099642"
    },
    {
        "PROVINCIA": "48",
        "DESCRIPCION_PROVINCIA": "BIZKAIA",
        "MUNICIPIO": "020",
        "DESCRIPCION_MUNICIPIO": "BILBAO",
        "PARADA": "5513",
        "DENOMINACION": "URAZURRUTIA",
        "DIRECCION": "",
        "LATITUD": "43.24901829380024",
        "LONGITUD": "-2.921513114814732"
    },
    {
        "PROVINCIA": "48",
        "DESCRIPCION_PROVINCIA": "BIZKAIA",
        "MUNICIPIO": "020",
        "DESCRIPCION_MUNICIPIO": "BILBAO",
        "PARADA": "5514",
        "DENOMINACION": "ZAMACOLA fte. 84",
        "DIRECCION": "",
        "LATITUD": "43.24489155107113",
        "LONGITUD": "-2.9243359034831413"
    },
    {
        "PROVINCIA": "48",
        "DESCRIPCION_PROVINCIA": "BIZKAIA",
        "MUNICIPIO": "020",
        "DESCRIPCION_MUNICIPIO": "BILBAO",
        "PARADA": "5515",
        "DENOMINACION": "ZAMACOLA / ESCUELA",
        "DIRECCION": "",
        "LATITUD": "43.244861096340365",
        "LONGITUD": "-2.9249801444137824"
    },
    {
        "PROVINCIA": "48",
        "DESCRIPCION_PROVINCIA": "BIZKAIA",
        "MUNICIPIO": "020",
        "DESCRIPCION_MUNICIPIO": "BILBAO",
        "PARADA": "5516",
        "DENOMINACION": "ZAMACOLA 116",
        "DIRECCION": "",
        "LATITUD": "43.24246939777241",
        "LONGITUD": "-2.9256486538109137"
    },
    {
        "PROVINCIA": "48",
        "DESCRIPCION_PROVINCIA": "BIZKAIA",
        "MUNICIPIO": "020",
        "DESCRIPCION_MUNICIPIO": "BILBAO",
        "PARADA": "5517",
        "DENOMINACION": "ZAMACOLA 150",
        "DIRECCION": "",
        "LATITUD": "43.24126197780249",
        "LONGITUD": "-2.9235697707777475"
    },
    {
        "PROVINCIA": "48",
        "DESCRIPCION_PROVINCIA": "BIZKAIA",
        "MUNICIPIO": "020",
        "DESCRIPCION_MUNICIPIO": "BILBAO",
        "PARADA": "5518",
        "DENOMINACION": "ZAMACOLA 168",
        "DIRECCION": "",
        "LATITUD": "43.24099697812572",
        "LONGITUD": "-2.921517234899265"
    },
    {
        "PROVINCIA": "48",
        "DESCRIPCION_PROVINCIA": "BIZKAIA",
        "MUNICIPIO": "020",
        "DESCRIPCION_MUNICIPIO": "BILBAO",
        "PARADA": "5519",
        "DENOMINACION": "ZAMACOLA 26",
        "DIRECCION": "",
        "LATITUD": "43.24952546043029",
        "LONGITUD": "-2.921860628657276"
    },
    {
        "PROVINCIA": "48",
        "DESCRIPCION_PROVINCIA": "BIZKAIA",
        "MUNICIPIO": "020",
        "DESCRIPCION_MUNICIPIO": "BILBAO",
        "PARADA": "5520",
        "DENOMINACION": "ZAMACOLA 4",
        "DIRECCION": "",
        "LATITUD": "43.25107936284876",
        "LONGITUD": "-2.9229630947422103"
    },
    {
        "PROVINCIA": "48",
        "DESCRIPCION_PROVINCIA": "BIZKAIA",
        "MUNICIPIO": "020",
        "DESCRIPCION_MUNICIPIO": "BILBAO",
        "PARADA": "5521",
        "DENOMINACION": "ZAMACOLA 39",
        "DIRECCION": "",
        "LATITUD": "43.24612013488777",
        "LONGITUD": "-2.92176653749161"
    },
    {
        "PROVINCIA": "48",
        "DESCRIPCION_PROVINCIA": "BIZKAIA",
        "MUNICIPIO": "020",
        "DESCRIPCION_MUNICIPIO": "BILBAO",
        "PARADA": "5522",
        "DENOMINACION": "ZAMACOLA 70",
        "DIRECCION": "",
        "LATITUD": "43.24573962975676",
        "LONGITUD": "-2.922582245820601"
    },
    {
        "PROVINCIA": "48",
        "DESCRIPCION_PROVINCIA": "BIZKAIA",
        "MUNICIPIO": "020",
        "DESCRIPCION_MUNICIPIO": "BILBAO",
        "PARADA": "5601",
        "DENOMINACION": "OLANO fte.4",
        "DIRECCION": "",
        "LATITUD": "43.25413656933685",
        "LONGITUD": "-2.925176170254088"
    },
    {
        "PROVINCIA": "48",
        "DESCRIPCION_PROVINCIA": "BIZKAIA",
        "MUNICIPIO": "020",
        "DESCRIPCION_MUNICIPIO": "BILBAO",
        "PARADA": "5602",
        "DENOMINACION": "URAZURRUTIA / SALA CUNA",
        "DIRECCION": "",
        "LATITUD": "43.2540248152168",
        "LONGITUD": "-2.923218431058193"
    },
    {
        "PROVINCIA": "48",
        "DESCRIPCION_PROVINCIA": "BIZKAIA",
        "MUNICIPIO": "020",
        "DESCRIPCION_MUNICIPIO": "BILBAO",
        "PARADA": "5603",
        "DENOMINACION": "URAZURRUTIA 14",
        "DIRECCION": "",
        "LATITUD": "43.253744487790335",
        "LONGITUD": "-2.9231266464480288"
    },
    {
        "PROVINCIA": "48",
        "DESCRIPCION_PROVINCIA": "BIZKAIA",
        "MUNICIPIO": "020",
        "DESCRIPCION_MUNICIPIO": "BILBAO",
        "PARADA": "5604",
        "DENOMINACION": "URAZURRUTIA 40",
        "DIRECCION": "",
        "LATITUD": "43.252398444408776",
        "LONGITUD": "-2.923104595755013"
    },
    {
        "PROVINCIA": "48",
        "DESCRIPCION_PROVINCIA": "BIZKAIA",
        "MUNICIPIO": "020",
        "DESCRIPCION_MUNICIPIO": "BILBAO",
        "PARADA": "5605",
        "DENOMINACION": "URAZURRUTIA 29",
        "DIRECCION": "",
        "LATITUD": "43.25201391470075",
        "LONGITUD": "-2.9228613494923845"
    },
    {
        "PROVINCIA": "48",
        "DESCRIPCION_PROVINCIA": "BIZKAIA",
        "MUNICIPIO": "020",
        "DESCRIPCION_MUNICIPIO": "BILBAO",
        "PARADA": "5606",
        "DENOMINACION": "MIRIBILLA / ESCUELA",
        "DIRECCION": "",
        "LATITUD": "43.25431424664916",
        "LONGITUD": "-2.9276922648942114"
    },
    {
        "PROVINCIA": "48",
        "DESCRIPCION_PROVINCIA": "BIZKAIA",
        "MUNICIPIO": "020",
        "DESCRIPCION_MUNICIPIO": "BILBAO",
        "PARADA": "5701",
        "DENOMINACION": "CORTES fte. 2",
        "DIRECCION": "",
        "LATITUD": "43.25485635090806",
        "LONGITUD": "-2.926972443039946"
    },
    {
        "PROVINCIA": "48",
        "DESCRIPCION_PROVINCIA": "BIZKAIA",
        "MUNICIPIO": "020",
        "DESCRIPCION_MUNICIPIO": "BILBAO",
        "PARADA": "5702",
        "DENOMINACION": "CORTES 13",
        "DIRECCION": "",
        "LATITUD": "43.25536319924636",
        "LONGITUD": "-2.92836616945215"
    },
    {
        "PROVINCIA": "48",
        "DESCRIPCION_PROVINCIA": "BIZKAIA",
        "MUNICIPIO": "020",
        "DESCRIPCION_MUNICIPIO": "BILBAO",
        "PARADA": "5703",
        "DENOMINACION": "CORTES 23",
        "DIRECCION": "",
        "LATITUD": "43.25604294682881",
        "LONGITUD": "-2.9302539750735312"
    },
    {
        "PROVINCIA": "48",
        "DESCRIPCION_PROVINCIA": "BIZKAIA",
        "MUNICIPIO": "020",
        "DESCRIPCION_MUNICIPIO": "BILBAO",
        "PARADA": "5704",
        "DENOMINACION": "MUELLE DE LA MERCED 3",
        "DIRECCION": "",
        "LATITUD": "43.25710367068639",
        "LONGITUD": "-2.927167718660181"
    },
    {
        "PROVINCIA": "48",
        "DESCRIPCION_PROVINCIA": "BIZKAIA",
        "MUNICIPIO": "020",
        "DESCRIPCION_MUNICIPIO": "BILBAO",
        "PARADA": "5706",
        "DENOMINACION": "CORAZON DE MARIA",
        "DIRECCION": "",
        "LATITUD": "43.2556572498067",
        "LONGITUD": "-2.927669730343529"
    },
    {
        "PROVINCIA": "48",
        "DESCRIPCION_PROVINCIA": "BIZKAIA",
        "MUNICIPIO": "020",
        "DESCRIPCION_MUNICIPIO": "BILBAO",
        "PARADA": "5707",
        "DENOMINACION": "SAN FRANCISCO 36",
        "DIRECCION": "",
        "LATITUD": "43.25678025697832",
        "LONGITUD": "-2.9308867071540288"
    },
    {
        "PROVINCIA": "48",
        "DESCRIPCION_PROVINCIA": "BIZKAIA",
        "MUNICIPIO": "020",
        "DESCRIPCION_MUNICIPIO": "BILBAO",
        "PARADA": "5708",
        "DENOMINACION": "OLANO 10",
        "DIRECCION": "",
        "LATITUD": "43.25435820062076",
        "LONGITUD": "-2.927782786932007"
    },
    {
        "PROVINCIA": "48",
        "DESCRIPCION_PROVINCIA": "BIZKAIA",
        "MUNICIPIO": "020",
        "DESCRIPCION_MUNICIPIO": "BILBAO",
        "PARADA": "5801",
        "DENOMINACION": "Dr. FLEMING 1",
        "DIRECCION": "",
        "LATITUD": "43.25653004426281",
        "LONGITUD": "-2.9318111174885986"
    },
    {
        "PROVINCIA": "48",
        "DESCRIPCION_PROVINCIA": "BIZKAIA",
        "MUNICIPIO": "020",
        "DESCRIPCION_MUNICIPIO": "BILBAO",
        "PARADA": "5802",
        "DENOMINACION": "JUAN DE GARAY 11",
        "DIRECCION": "",
        "LATITUD": "43.2548977117979",
        "LONGITUD": "-2.933456535938119"
    },